Country,Province,District,Sector,Cell,name,stage,subStage,id,Bridge Type,span,latitude,longitude,Individuals Directly Served,Form: Form Name,CaseSafeID Form,Bridge Opportunity: Opportunity ID,Community_served,Village
Rwanda,Western Province,Rusizi,Giheke,Gakomeye,Buzi,Rejected,Technical,1014107,Suspended,0.0,-2.42056,28.9662,0.0,Project Assessment - 2018.10.29,a1if1000002e51bAAA,006f100000d1fk1,Buzi  Kabuga  Kagarama  Gacyamo  Gasheke,
Rwanda,Western Province,Rusizi,Giheke,Gakomeye,Kamigisha,Rejected,Technical,1014106,Suspended,0.0,-2.42486,28.957259999999998,0.0,Project Assessment - 2018.10.29,a1if1000002e51WAAQ,006f100000d1fjw,Kabuga  Buzi  Gacyamo - Gasheke  Kagarama  Kanoga,
Rwanda,Northern Province,Rulindo,Buyoga,Gahororo-Gipfundo,Gipfundo,Rejected,Technical,1007651,Suspended,8.0,-1.72053,30.08124,0.0,Project Assessment - 2018.8.11,a1if10000025nz8AAA,006f100000a86I3,Gapfundo  Rusabira ( Gicumbi)  Merezo  Minanire  Karutongo,
Rwanda,Northern Province,Gicumbi,Kageyo,Kabuga-Gatobotobo,Nyarubande,Rejected,,1012493,Other,0.0,-1.65595,30.078840000000003,0.0,Project Assessment - 2018.8.11,a1if10000025nzDAAQ,006f100000cPpL8,             ,
Rwanda,Southern Province,Kamonyi,Kayenzi,Kirwa,Gisizi,Identified,Requested,1014318,Suspended,0.0,-1.870868,29.877685999999997,0.0,Project Assessment - 2018.11.15,a1if1000002gMwRAAU,006f100000eescb,Gisizi  Nyabitare         ,
Rwanda,Southern Province,Kamonyi,Kayenzi,Kirwa,Ruheka,Rejected,Technical,1014319,Suspended,0.0,-1.8839569999999999,29.850548,0.0,Project Assessment - 2018.11.15,a1if1000002gMwqAAE,006f100000eescl,Ruheka  Kabana         ,
Rwanda,Southern Province,Kamonyi,Ngamba,Kabuga,Raro,Rejected,Technical,1014327,,0.0,-1.896261,29.951448,0.0,Project Assessment - 2018.11.15,a1if1000002gMxUAAU,006f100000eesdZ,Raro  Kamuhoza( Runda sector)         ,
Rwanda,Southern Province,Kamonyi,Karama,Bit,Kinkeri,Rejected,Technical,1014324,,0.0,-1.977729,29.850108000000002,0.0,Project Assessment - 2018.11.15,a1if1000002gMxFAAU,006f100000eesdK,Kinkeri( karama sector )  Musambira sector         ,
Rwanda,Southern Province,Kamonyi,Karama,Bunyonga,Nyenyeri,Rejected,Technical,1014321,Suspension,0.0,-1.9397369999999998,29.843621999999996,0.0,Project Assessment - 2018.11.15,a1if1000002gMx0AAE,006f100000eescv,Nyenyeri  Bunyonga  Kavumu      ,
Rwanda,Southern Province,Kamonyi,Gacurabwenge,Gihga,Karama,Rejected,Technical,1014325,Suspended,0.0,-1.9801259999999998,29.905502000000002,0.0,Project Assessment - 2018.11.15,a1if1000002gMxKAAU,006f100000eesdP,"Karama  Kagarama  Ryabitana  Nyarunyinya  Gahira cell, karama sector and kayenzi",
Rwanda,Southern Province,Kamonyi,Karama,Bunyonga,Bunyonga 2,Rejected,Technical,1014323,,0.0,-1.939927,29.818313,0.0,Project Assessment - 2018.11.15,a1if1000002gMxAAAU,006f100000eesdA,Bunyonga  Kayumbo sector         ,
Rwanda,Southern Province,Kamonyi,Karama,Bunyonga,Bunyonga 1,Identified,Requested,1014322,Suspended,54.0,-1.9349189999999998,29.819397,0.0,Project Assessment - 2018.11.15,a1if1000002gMx5AAE,006f100000eesd5,Bunyonga  Nyarurembo  Gaji      ,
Rwanda,Southern Province,Kamonyi,Kayenzi,Bugarama,Munyegera,Rejected,Technical,1014320,Suspension,0.0,-1.915772,29.866533,0.0,Project Assessment - 2018.11.15,a1if1000002gMwvAAE,006f100000eescq,Bugarama cell  Kayonza cell  Mataba cell  Muganza cell   ,
Rwanda,Southern Province,Kamonyi,Gacurabwenge,Kigembe,Rugobagoba,Rejected,Technical,1014326,Suspension,0.0,-2.0012630000000002,29.888983000000003,0.0,Project Assessment - 2018.11.15,a1if1000002gMxPAAU,006f100000eesdU,Rugobagoba  Rubona         ,
Rwanda,Southern Province,Kamonyi,Gacurabwenge,Gihga,Kagarama,Rejected,Technical,1014328,Suspension,0.0,-1.984548,29.931428000000004,0.0,Project Assessment - 2018.11.16,a1if1000002gMyAAAU,006f100000eesiP,Kagarama  Ryabitana  Karama  Rugogwe  Karehe,
Rwanda,Southern Province,Kamonyi,Ngamba,Kabuga,Kabuga (Fukwe),Rejected,Technical,1014329,Suspension,0.0,-1.872181,29.92942,0.0,Project Assessment - 2018.11.16,a1if1000002gMyFAAU,006f100000eesiU,Kabuga cell  Kijabago cell         ,
Rwanda,Southern Province,Kamonyi,Rukoma,Gishyeshye,Rubare,Rejected,Technical,1014331,,0.0,-1.908306,29.881691999999997,0.0,Project Assessment - 2018.11.16,a1if1000002gMyPAAU,006f100000eesie,Rubare            ,
Rwanda,Southern Province,Kamonyi,Rukoma,Murehe,Rushikiri,Identified,Requested,1014330,Suspended,0.0,-1.9377330000000001,29.9489,0.0,Project Assessment - 2018.11.16,a1if1000002gMyKAAU,006f100000eesiZ,Entire cell of Murehe  Kabagesera  Gihara      ,
Rwanda,Kigali,Gasabo,Rutunga,Gasabo-Murdi,Irayirayi,Rejected,Technical,1014594,Suspension,0.0,-1.7801900000000002,30.14043,0.0,Project Assessment - 2018.11.30,a1if1000002hR2SAAU,006f100000efHAC,Rutare  Rutunga         ,
Rwanda,Kigali,Gasabo,Gikomero,Kibara-Gasagara,Kibobo-Rwingeyo,Rejected,Technical,1014613,Suspended,0.0,-1.8640990000000002,30.233290000000004,0.0,Project Assessment - 2018.11.30,a1if1000002hRNLAA2,006f100000efHCD,Kibobo  Gasharu  Nombe  Rwingeyo  Gasagara-Rugwiza,
Rwanda,Kigali,Gasabo,Shyorongi-Jari,Bugaragara-Nkusi,Kiziranyenzi,Rejected,Technical,1007653,Suspended,32.0,-1.848168,29.991187,0.0,Project Assessment - 2018.11.30,a1if1000002hROYAA2,006f100000a86I5,Nkusi  Bugaragara  Munyarwanda      ,
Rwanda,Southern Province,Gisagara,Gikonko-Musha,Gasagara-Gatovu,Akarukambira,Rejected,Technical,1013578,Suspension,0.0,-2.4855,29.843359999999997,0.0,Project Assessment - 2018.9.23,a1if1000002YQiWAAW,006f100000d7bAg,Akarukambira  Agasenyi  Ryamugunga  Agahabwa   ,
Rwanda,Eastern Province,Kirehe,Gahara,Butezi,Rwabiyombi~ kijumbura 2,Rejected,Technical,1014466,,0.0,-2.365716,30.542116999999998,0.0,Project Assessment - 2018.11.24,a1if1000002h7GGAAY,006f100000ef6y2,Butezi            ,
Rwanda,Eastern Province,Rwamagana,Fumbwe,Nyagasambu,Rebero,Rejected,Technical,1014605,,0.0,-1.8931930000000001,30.280679,0.0,Project Assessment - 2018.11.30,a1if1000002hRF2AAM,006f100000efHBA,Rebero            ,
Rwanda,Eastern Province,Rwamagana,Kigabiro,Sovu,Rugobagoba,Rejected,Technical,1014461,Suspension,0.0,-2.02333,30.432090000000002,0.0,Project Assessment - 2018.11.24,a1if1000002h7FrAAI,006f100000ef6xd,Rugobagoba  Nyabishunzi  Cyaruhogo  Kabazeye  Kinganzwa,
Rwanda,Eastern Province,Kirehe,Mushikir,Rugarama-Tomi,Tomi,Rejected,Technical,1014470,,0.0,-2.1496,30.665409999999998,320.0,Project Assessment - 2018.11.24,a1if1000002h7GaAAI,006f100000ef6yR,Nyagatugunda            ,
Rwanda,Eastern Province,Rwamagana,Gahengeri-Mwurire,Kagezi-Ntunga,Kabonero,Rejected,Technical,1014611,Suspension,0.0,-1.965611,30.337764,0.0,Project Assessment - 2018.11.30,a1if1000002hRLAAA2,006f100000efHBo,Kabonero  Akabuga  Gihumuza  Rugenge  Nkira-kadasumbwa,
Rwanda,Eastern Province,Rwamagana,Muyumbu,Nyarukombe,Marembo,Rejected,Technical,1014616,Suspension,0.0,-1.970761,30.232989,0.0,Project Assessment - 2018.11.30,a1if1000002hRVAAA2,006f100000efHCc,Nyarukombe cell            ,
Rwanda,Eastern Province,Gatsibo,Remera-Rugarama,Bushobora-Bugarama,Kagarama2,Rejected,Technical,1014604,,0.0,-1.7196349999999998,30.366374,0.0,Project Assessment - 2018.11.30,a1if1000002hREYAA2,006f100000efHB5,Bushobora  Bugarama         ,
Rwanda,Eastern Province,Bugesera,Musenyi,Nyagihika-Nyakajuri,Nyakajuri,Rejected,Technical,1014599,,0.0,-2.2239299999999997,30.07617,0.0,Project Assessment - 2018.11.30,a1if1000002hR99AAE,006f100000efHAg,Nyakajuri            ,
Rwanda,Eastern Province,Rwamagana,Kigabiro,Sovu,Kwanyiramanyana,Rejected,Technical,1014463,Suspension,0.0,-2.009512,30.421038,0.0,Project Assessment - 2018.11.24,a1if1000002h7G1AAI,006f100000ef6xn,Kiruhura  Gatare  Kabuya      ,
Rwanda,Eastern Province,Bugesera,Musenyi,Nyagihunika-Rugarama,Rugarama/mbonwa,Rejected,Technical,1014596,Suspension,0.0,-2.22306,30.055999999999997,0.0,Project Assessment - 2018.11.30,a1if1000002hR5HAAU,006f100000efHAR,Rugarama  Mbonwa         ,
Rwanda,Kigali,Gasabo,Rutunga,Gasabo-Murdi,Kabarebe,Rejected,Technical,1014595,Suspension,0.0,-1.7901099999999999,30.13083,0.0,Project Assessment - 2018.11.30,a1if1000002hR3uAAE,006f100000efHAH,Rutunga  Ntarabana         ,
Rwanda,Eastern Province,Bugesera,Ruhuha,Ruhuha-Nyaburanga,Nyabaranga,Rejected,Technical,1014600,,0.0,-2.29153,30.05912,0.0,Project Assessment - 2018.11.30,a1if1000002hR9dAAE,006f100000efHAl,Nyaburanga            ,
Rwanda,Eastern Province,Bugesera,Musenyi,Nyagihunika-Rugarama,Nyakajuri,Rejected,Technical,1014598,,0.0,-2.2052400000000003,30.078640000000004,0.0,Project Assessment - 2018.11.30,a1if1000002hR86AAE,006f100000efHAb,Rugarama            ,
Rwanda,Eastern Province,Rwamagana,Muyumbu,Nyarukombe-Bujyujyu,Kinunga,Rejected,Technical,1014606,,0.0,-1.989138,30.263844,0.0,Project Assessment - 2018.11.30,a1if1000002hRFCAA2,006f100000efHBF,Kinunga            ,
Rwanda,Eastern Province,Kirehe,Gahara,Butezi,Butezi,Rejected,Technical,1014467,,0.0,-2.371645,30.539508,0.0,Project Assessment - 2018.11.24,a1if1000002h7GLAAY,006f100000ef6y7,Butezi            ,
Rwanda,Eastern Province,Kirehe,Mushikiri,Rwayikona,Rwayikona,Rejected,Technical,1014474,Suspension,0.0,-2.164154,30.695953999999997,0.0,Project Assessment - 2018.11.24,a1if1000002h7GuAAI,006f100000ef6yl,"Rwayikona  Sangano,rwabandama  Tonero  Karenge 1& 2, gashasha   ",
Rwanda,Eastern Province,Gatsibo,Remera-Rugarama,Bushobora-Remera,Akamabuye,Rejected,Technical,1014603,Suspension,0.0,-1.713697,30.358427000000002,0.0,Project Assessment - 2018.11.30,a1if1000002hREJAA2,006f100000efHB0,Akamabuye  Kagarama  Rwamivu      ,
Rwanda,Eastern Province,Rwamagana,Gahengeri-Fumbwe,Runyya-Nyagasambu,Cyeru,Rejected,Technical,1014612,Suspension,0.0,-1.896111,30.278146000000003,0.0,Project Assessment - 2018.11.30,a1if1000002hRN1AAM,006f100000efHC3,Cyeru  Kamasasa-Kabarore  Ruyumba-Ryamuzuka  Rebero-Nyakagunga  Kirehe-Kabeza,
Rwanda,Eastern Province,Kirehe,Mpanga-Nyarubuye,Kankobwa-Kankobwa,Kereta,Rejected,Technical,1014487,Suspended,0.0,-2.1664,30.788629999999998,0.0,Project Assessment - 2018.11.24,a1if1000002h7dKAAQ,006f100000ef71B,Nyarubuye  Mpanga  Mahama      ,
Rwanda,Eastern Province,Kirehe,Kigarama,Nyakerera,Kabare,Rejected,Technical,1014476,,0.0,-2.332831,30.652159,0.0,Project Assessment - 2018.11.24,a1if1000002h7H4AAI,006f100000ef6yv,Kabare            ,
Rwanda,Eastern Province,Kirehe,Mushikiri,Rwayikona,Barisuka,Rejected,Technical,1014469,Suspension,0.0,-2.208786,30.695040999999996,0.0,Project Assessment - 2018.11.24,a1if1000002h7GVAAY,006f100000ef6yH,Barisuka  Kabeza  Isangano  Kagega1 and 2  Rwakanyambo,
Rwanda,Eastern Province,Kirehe,Gahara,Muhamba,Murama,Rejected,Technical,1014465,,0.0,-2.3152,30.470953,0.0,Project Assessment - 2018.11.24,a1if1000002h7GBAAY,006f100000ef6xx,Murama            ,
Rwanda,Eastern Province,Kirehe,Kigarama,Nyakerera,Gatari,Rejected,Technical,1014475,,0.0,-2.3592,30.677613,0.0,Project Assessment - 2018.11.24,a1if1000002h7GzAAI,006f100000ef6yq,Gatari            ,
Rwanda,Eastern Province,Kirehe,Gahara,Nyagasenyi,Mugatare,Rejected,Technical,1014464,Suspension,0.0,-2.296406,30.523590000000002,0.0,Project Assessment - 2018.11.24,a1if1000002h7G6AAI,006f100000ef6xs,Nyagasenyi            ,
Rwanda,Eastern Province,Kirehe,Nyarubuye,Nyarutunga-Bugarura-Remera,Kiyanja,Rejected,Technical,1014473,Suspended,0.0,-2.1747799999999997,30.76704,1750.0,Project Assessment - 2018.11.24,a1if1000002h7GpAAI,006f100000ef6yg,Bugarura  Remera         ,
Rwanda,Eastern Province,Kirehe,Nasho,Rubilizi,Kabigembe 2,Rejected,Technical,1014468,,0.0,-2.09732,30.701159000000004,0.0,Project Assessment - 2018.11.24,a1if1000002h7GQAAY,006f100000ef6yC,Kabigembe 2            ,
Rwanda,Eastern Province,Kirehe,Nyarubuye,Nyarutunga-Nyarubuye1,Kizoke,Rejected,Technical,1014462,Suspended,0.0,-2.184027,30.767540999999998,0.0,Project Assessment - 2018.11.24,a1if1000002h7FwAAI,006f100000ef6xi,Nyarubuye1  Remera  Bugarura      ,
Rwanda,Eastern Province,Kirehe,Nasho,Kagesa-Mitsdo,Mitsindo,Rejected,Technical,1014480,Suspension,0.0,-2.7278,30.72778,0.0,Project Assessment - 2018.11.24,a1if1000002h7TPAAY,006f100000ef6zF,Mitsindo  Nyabihara  Kanamira  Military camp at nasho   ,
Rwanda,Eastern Province,Kirehe,Nasho,Ntaruka-Nyabihara,Gatabura,Rejected,Technical,1014482,Suspended,0.0,-2.1486,30.72617,0.0,Project Assessment - 2018.11.24,a1if1000002h7cvAAA,006f100000ef70h,Mitsindo  Nyabihara         ,
Rwanda,Eastern Province,Kirehe,Nyarubuye,Mba-Rurenge2,Mareba,Rejected,Technical,1014485,,0.0,-2.2107900000000003,30.734309999999997,0.0,Project Assessment - 2018.11.24,a1if1000002h7dAAAQ,006f100000ef70w,Rurenge2            ,
Rwanda,Eastern Province,Kirehe,Mushikiri,Bisagara-Bgaro,Karuruma,Rejected,Technical,1014472,Suspended,0.0,-2.18715,30.62265,1000.0,Project Assessment - 2018.11.24,a1if1000002h7GkAAI,006f100000ef6yb,Bingaro  Rwamukobwa         ,
Rwanda,Eastern Province,Kirehe,Nyarubuye-Mpanga,Nyabit-Nyabayamo,Gahama ya nyagasenyi,Rejected,Technical,1014479,Suspended,0.0,-2.2136,30.778470000000002,0.0,Project Assessment - 2018.11.24,a1if1000002h7RYAAY,006f100000ef6zA,Nyagasenyi  Nyabayamo         ,
Rwanda,Eastern Province,Kirehe,Mpanga,Bwiyorere,Rwanyagatamu,Rejected,Technical,1014486,,0.0,-2.2099,30.78795,0.0,Project Assessment - 2018.11.24,a1if1000002h7dFAAQ,006f100000ef711,Bwiyorere            ,
Rwanda,Eastern Province,Kirehe,Nasho,Kagesa-Mitsdo-Nyabihara,Mitsindo-nyabihara,Rejected,Technical,1014481,Suspended,0.0,-2.1403,30.72741,0.0,Project Assessment - 2018.11.24,a1if1000002h7WEAAY,006f100000ef6zP,Mitsindo  Nyabihara         ,
Rwanda,Eastern Province,Rwamagana,Kigabiro,Bwiza-Muni,kadigadiga,Rejected,Technical,1014477,Suspension,0.0,-1.99173,30.448175,0.0,Project Assessment - 2018.11.24,a1if1000002h7H9AAI,006f100000ef6z0,Munini  Kagerero  Karambo      ,
Rwanda,Eastern Province,Kirehe,Mahama,Saruhembe-Saruhembe,Rwamaziba,Rejected,Technical,1014483,,0.0,-2.2318,30.8131,0.0,Project Assessment - 2018.11.24,a1if1000002h7d0AAA,006f100000ef70m,Saruhembe            ,
Rwanda,Eastern Province,Kirehe,Mpanga,Bwiyorere,Nyagasenyi kwa mbaraga,Rejected,Technical,1014484,,0.0,-2.2073,30.79185,0.0,Project Assessment - 2018.11.24,a1if1000002h7d5AAA,006f100000ef70r,Nyagasenyi            ,
Rwanda,Eastern Province,Rwamagana,Kigabiro-Ruramira,Bwiza-Rutaka,Rutaka,Rejected,Technical,1014478,Suspension,0.0,-1.99518,30.473809999999997,0.0,Project Assessment - 2018.11.24,a1if1000002h7PrAAI,006f100000ef6z5,Ruramira  Munyaga  Kigabiro      ,
Rwanda,Southern Province,Gisagara,Musha,Kimana,Nyamiyaga,Rejected,Technical,1013577,Suspension,0.0,-2.52882,29.827859999999998,0.0,Project Assessment - 2018.9.23,a1if1000002YQiRAAW,006f100000d7bAW,Nyamiyaga  Akabanga  Murambi      ,
Rwanda,Eastern Province,Rwamagana,Gahengeri-Rusororo,Runyya-Bisenge,Kabarore,Rejected,Technical,1014608,Suspended,0.0,-1.918336,30.273599,0.0,Project Assessment - 2018.11.30,a1if1000002hRGoAAM,006f100000efHBU,Kabarore  Ryamuzuka  Karambo  Ruyumba  Kidogo- Gakenyeri,
Rwanda,Eastern Province,Rwamagana,Gahengeri-Rusororo,Runyya-Bisenga,Karambo,Rejected,Technical,1014607,Suspension,0.0,-1.9266459999999999,30.276659000000002,0.0,Project Assessment - 2018.11.30,a1if1000002hRGKAA2,006f100000efHBK,Karambo  Kamugasa  Rugagi  Ryasentetere  Gakenkeri,
Rwanda,Western Province,Rusizi,Pera,,Rusayo,Rejected,Technical,1007661,Suspension,25.0,-2.697308,29.029517,17270.0,Project Assessment - 2018.12.13,a1if1000002qz1JAAQ,006f100000a86ID,Pera cell  Kizura cell         ,
Rwanda,Kigali,Gasabo,Jali-Ngoma,Nkusi-Munyarwa,Kajevuba,Rejected,Technical,1014614,Suspension,0.0,-1.8473099999999998,29.99128,0.0,Project Assessment - 2018.11.30,a1if1000002hRNpAAM,006f100000efHCI,Nkusi  Bugaragara  Munyarwanda      ,
Rwanda,Eastern Province,Rwamagana,Gahengeri-Mwurire,Kagezi-Ntunga,Rwarugaju,Rejected,Technical,1014610,Suspension,0.0,-1.98212,30.343604,0.0,Project Assessment - 2018.11.30,a1if1000002hRIpAAM,006f100000efHBe,Rwarugaju  Samatare  Kinyovi-Iramiro  Rugenge  Karuzigura-Kiyovu,
Rwanda,Eastern Province,Bugesera,Nyarugenge,Ngenda-Tubumba,Tubumba,Rejected,Technical,1014597,Suspension,0.0,-2.22306,30.0561,0.0,Project Assessment - 2018.11.30,a1if1000002hR7SAAU,006f100000efHAW,Rurama  Tubumba  Ngenda      ,
Rwanda,Western Province,Rubavu,Nyundo-Rugerero,Terimbere-Nombe,Pfunda,Rejected,Technical,1014004,Suspension,0.0,-1.70533,29.304779999999997,0.0,Project Assessment - 2018.10.26,a1if1000002e3RmAAI,006f100000d1dvf,Nombe  Rugerero  Kaburizi  Nyundo   ,
Rwanda,Western Province,Rusizi,Giheke-Bushenge,Gakomeye-Gasheke,Gacyamo,Rejected,Technical,1014108,Suspension,0.0,-2.41855,28.969459999999998,0.0,Project Assessment - 2018.10.29,a1if1000002e51gAAA,006f100000d1fk6,Gacyamo  Buzi  Kabuga  Kagarama  Gasheke,
Rwanda,Western Province,Rusizi,Butare,Rwambogo,Nyagatango,Rejected,Technical,1014109,Suspended,0.0,-2.58868,29.112470000000002,0.0,Project Assessment - 2018.10.29,a1if1000002e51lAAA,006f100000d1fkB,Gasumo  Kenya  Ndengerezi  Rushwati   ,
Rwanda,Western Province,Rusizi,Butare,Rwambogo,Rwengenzi,Identified,Requested,1014104,Suspended,0.0,-2.58744,29.106109999999997,0.0,Project Assessment - 2018.10.29,a1if1000002e51MAAQ,006f100000d1fjm,Gasumo  Kenya - Rushwati  Ndengerezi - Kirwano  Nyaruteja  Kigarama - Cyaruhuza,
Rwanda,Western Province,Rubavu,Nyundo,Nyundo-Kizuguro,Kiziguro,Rejected,Social,1014005,Suspension,0.0,-1.70002,29.34484,0.0,Project Assessment - 2018.10.26,a1if1000002e3RrAAI,006f100000d1dz1,Kiziguro  Mahoko         ,
Rwanda,Western Province,Rusizi,Giheke,Gakomeye-Rwega,Nyakabanda,Rejected,Technical,1014105,Suspended,0.0,-2.42715,28.95369,0.0,Project Assessment - 2018.10.29,a1if1000002e51RAAQ,006f100000d1fjr,Kanoga  Kagarama  Kabuga  Buzi  Gacyamo - Gasheke,
Rwanda,Western Province,Rusizi,Butare,Rwambogo-Buta,Kigarama,Rejected,Technical,1014103,Suspended,0.0,-2.55734,29.0933,0.0,Project Assessment - 2018.10.29,a1if1000002e51HAAQ,006f100000d1fjh,Kigarama  Bisengo - Nyaruteja  Cyaruhiza - Cyijuru  Murambi - Gitega  Buganzo - Gasine,
Rwanda,Southern Province,Muhanga,Nyarusange,Rusovu,Rukurazo,Complete,In Service,1009445,Suspended,49.0,-2.115072,29.700843,0.0,Project Assessment - 2018.12.13,a1if1000002qz1nAAA,006f100000atwPz,Rukurazo  Bisika         ,
Rwanda,Eastern Province,Gatsibo,Gasange-Giti,Viro-Murehe,Kagogo,Rejected,Technical,1014602,Suspended,0.0,-1.758415,30.255139,0.0,Project Assessment - 2018.11.30,a1if1000002hRDkAAM,006f100000efHAv,Kagogo  GaharaI  GaharaII-Viro  Kabeza  Gatare-Bisika,
Rwanda,Eastern Province,Rwamagana,Muyumbu-Nyakariro,Bujyujyu-Gishore,Rusave,Rejected,Technical,1014609,Suspended,0.0,-2.013575,30.254666999999998,0.0,Project Assessment - 2018.11.30,a1if1000002hRHSAA2,006f100000efHBZ,Rusave  Karama-Kabeza  Rusave  Nyirabuhene-Matyazo  Ruhanika-Rusagara,
Rwanda,Eastern Province,Bugesera,Shyara,Kabagugu,Kinteko,Rejected,Technical,1014619,Suspended,0.0,-2.261622,29.988408000000003,0.0,Project Assessment - 2018.11.30,a1if1000002hTMUAA2,006f100000efHIu,Kintenko  Ngaruye  Kabagugu  Gaseke   ,
Rwanda,Southern Province,Gisagara,Mamba,Muyaga-Ramba,Gahuru,Rejected,Technical,1013580,Suspension,0.0,-2.5093400000000003,29.90858,0.0,Project Assessment - 2018.9.23,a1if1000002YQigAAG,006f100000d7bAq,Ruhamagariro  Shyembe  Butezi - Kibumba  Kigangazi  Rusave,
Rwanda,Southern Province,Gisagara,Mamba-Musha,Ramba-Bukanyana,Nyamuko,Identified,Requested,1013576,Suspension,0.0,-2.51384,29.882009999999998,0.0,Project Assessment - 2018.9.23,a1if1000002YQiMAAW,006f100000d7bAR,Gatoki  Mukori  Nyirabageni  Rukoni   ,
Rwanda,Northern Province,Gakenke,Muhondo,,Gihinga,Rejected,Technical,1009329,Suspended,0.0,-1.829439,29.882134000000004,0.0,Project Assessment - 2018.12.13,a1if1000002qz22AAA,006f100000asYQD,Gihinga cell  Musagara cell         ,
Rwanda,Southern Province,Gisagara,Mamba,Ramba,Rwamuzenga,Rejected,Technical,1013575,Suspension,0.0,-2.49883,29.927,0.0,Project Assessment - 2018.9.23,a1if1000002YQiHAAW,006f100000d7bAM,Murambi  Murama  Gatare  Runazi   ,
Rwanda,Southern Province,Gisagara,Gikonko,Gikonko-Mbogo,Gatare,Rejected,Technical,1013579,Suspension,0.0,-2.49034,29.875770000000003,0.0,Project Assessment - 2018.9.23,a1if1000002YQibAAG,006f100000d7bAl,Runyinya  Karubondo  Rwatano  Rwinyana   ,
Rwanda,Southern Province,Gisagara,Mamba-Ntyazo,Gakoma-Gatarara,Runyeshyanga,Rejected,Technical,1013572,Suspension,0.0,-2.40829,29.9468,0.0,Project Assessment - 2018.9.23,a1if1000002YQi2AAG,006f100000d7bA7,Ruhuha  Sokofi  Gakomeye - Kizenga  Rugwiza - Rebero  Kamabuye,
Rwanda,Southern Province,Gisagara,Mamba,Kabumbwe-Mamba-Gakoma,Kinamba,Rejected,Technical,1013571,Suspension,0.0,-2.46509,29.940440000000002,0.0,Project Assessment - 2018.9.23,a1if1000002YQhxAAG,006f100000d7bA2,Rebero  Mamba  Mashenyi  Muhabura - Munopfu  Nunga - Nyarugenge,
Rwanda,Kigali,Gasabo,Shyorongi-Jari,Nkusi,Nyungwe,Rejected,Technical,1007652,Suspended,30.0,-1.857823,29.992177,0.0,Project Assessment - 2018.11.30,a1if1000002hRaAAAU,006f100000a86I4,Nyagasayo  Munyinya  Kajevuba  Nyarushinga  Gisiza,
Rwanda,Western Province,Ngororero,Sovu-Rusebeya,Kanyana-Mberi-Gihga,Kwa Agnes,Rejected,Technical,1007429,Suspension,8.0,-1.9264167,29.5062222,0.0,Project Assessment - 2018.12.13,a1if1000002qz1iAAA,006f100000a86ET,             ,Mugobati
Rwanda,Southern Province,Muhanga,Kabacuzi,But,Buyoga,Identified,,1009296,Suspended,0.0,-1.9303709999999998,29.779313000000002,0.0,Project Assessment - 2018.12.13,a1if1000002qz1dAAA,006f100000ary6h,Buyoga  Nyirabwayi         ,
Rwanda,Southern Province,Muhanga,Kibangu,Gitega,Cyuzu,Identified,,1009426,Suspension,81.0,-1.8510900000000001,29.666005,0.0,Project Assessment - 2018.12.13,a1if1000002qz1YAAQ,006f100000atGB5,             ,
Rwanda,Kigali,Kicukiro,Rusheshe,Rusheshe,Rusheshe,Rejected,Technical,1007330,,135.0,-2.038712,30.186428000000003,0.0,Project Assessment - 2018.11.30,a1if1000002hT9zAAE,006f100000a86Cs,             ,
Rwanda,Southern Province,Gisagara,Mamba-Ntyazo,Gakoma-Gatarara,Rwihinda,Rejected,Technical,1013573,Suspension,0.0,-2.434,29.93238,0.0,Project Assessment - 2018.9.23,a1if1000002YQi7AAG,006f100000d7bAC,Sokofi  Rebero - Rugwiza  Gakomeye - Kizenga  Ruhuha  Gatare,
Rwanda,Western Province,Ngororero,Gatumba,,Kirombozi,Rejected,Technical,1007428,,22.0,-1.9296360000000001,29.799125,0.0,Project Assessment - 2018.12.13,a1if1000002qz1xAAA,006f100000a86ES,             ,
Rwanda,Southern Province,Muhanga,Musaza,,Kumukenke,Rejected,Technical,1007403,,10.0,-2.0766709999999997,29.716686,0.0,Project Assessment - 2018.12.13,a1if1000002qz1TAAQ,006f100000a86E3,             ,
Rwanda,Western Province,Ngororero,Hindiro,Mparantima,Kigufi,Rejected,Technical,1007431,,6.0,-1.8153056,29.578056,0.0,Project Assessment - 2018.12.8,a1if1000002qulXAAQ,006f100000a86EV,             ,Mugesera
Rwanda,Western Province,Rusizi,Kamanyenga,,Nyabiranka,Rejected,Technical,1007658,,150.0,-2.396098,28.927481,0.0,Project Assessment - 2018.12.13,a1if1000002qz1OAAQ,006f100000a86IA,             ,
Rwanda,Eastern Province,Bugesera,Juru,,Nyamigende,Rejected,,1007331,,100.0,-2.095311,30.245678,0.0,Project Assessment - 2018.11.30,a1if1000002hTAOAA2,006f100000a86Ct,Juru  Nyakariro         ,
Rwanda,Eastern Province,Bugesera,Shyara,Nziranzira,Gahosha,Rejected,Technical,1014618,,0.0,-2.248912,30.019451,0.0,Project Assessment - 2018.11.30,a1if1000002hTB2AAM,006f100000efHHS,Gahosha            ,
Rwanda,Eastern Province,Ngoma,Kibingo,Cyasemakamba-Mahango,Marembo,Rejected,Technical,1014382,Suspended,0.0,-2.1609849999999997,30.551312,0.0,Project Assessment - 2018.11.18,a1if1000002gbLhAAI,006f100000eeuyp,Cyasemakamba  Mahango         ,Mmbo-Kabimba
Rwanda,Southern Province,Nyaruguru,Ngera-Ngoma,Yaramba-Kibangu,Gituramigina,Rejected,Technical,1007571,Suspended,12.0,-2.7438056,29.670805600000005,0.0,Project Assessment - 2018.10.29,a1if1000002e6qCAAQ,006f100000a86Gl,Yaramba  Kibangu         ,
Rwanda,Western Province,Rusizi,Butare,Nyamiha,Rushwati,Rejected,Technical,1014169,Suspended,0.0,-2.5842099999999997,29.14232,0.0,Project Assessment - 2018.10.29,a1if1000002e6r5AAA,006f100000d1hUW,Rushwati  Gasumo  Karambo  Uwinzovu-Ndengerezi  Kirwano-Munkamba,
Rwanda,Western Province,Rusizi,Butare-Bweyeye,Nymiha-Rasano,Ndengerezi,Rejected,Technical,1014167,Suspended,0.0,-2.58127,28.15265,0.0,Project Assessment - 2018.10.29,a1if1000002e6qvAAA,006f100000d1hU7,Ndengerezi  Kirwano  Munkamba  Karambo  Uwinzovu,
Rwanda,Western Province,Rusizi,Butare,Nyamiha,Munkamba,Rejected,Technical,1014168,Suspended,0.0,-2.57245,29.15343,0.0,Project Assessment - 2018.10.29,a1if1000002e6r0AAA,006f100000d1hUH,Munkamba  Kenya  Kirwano  Ndengezi  Rushwati,
Rwanda,Eastern Province,Ngoma,Rurenge-Kibungo,Musya-Knge,Rwasaburo,Rejected,Technical,1014384,Suspension,0.0,-2.1577349999999997,30.532792999999998,0.0,Project Assessment - 2018.11.18,a1if1000002gbMpAAI,006f100000eeuyz,Musya Cell  Karenge cell         ,Rwasaburo-Ihuriro
Rwanda,Eastern Province,Nyagatare,Rukomo-Nyagatare,Rukomoii-Gitarane,Isangano,Rejected,Technical,1014387,Suspension,0.0,-1.3941299999999999,30.28182,0.0,Project Assessment - 2018.11.18,a1if1000002gbNnAAI,006f100000eeuzE,Isangano  Berwa-Kabeza  Nyarurama-Nyarubuye  Gakirage  Nkongi,
Rwanda,Southern Province,Nyaruguru,Ngera-Rusenge,Bit,Bitare,Rejected,Technical,1007549,Suspension,20.0,-2.6873400000000003,29.65577,0.0,Project Assessment - 2018.10.29,a1if1000002e6q2AAA,006f100000a86GP,             ,
Rwanda,Southern Province,Nyaruguru,Ngera,Yaramba,Runyani,Complete,In Service,1007544,Suspension,85.0,-2.71578,29.676070000000003,0.0,Project Assessment - 2018.10.29,a1if1000002e6q7AAA,006f100000a86GK,Runyami  Musumba  Yaramba  Kirwa  Mbogo,
Rwanda,Western Province,Rusizi,Giheke-Gihundwe,Rwega-Shagasha,Impala,Rejected,Technical,1014166,,0.0,-2.44246,28.9333,0.0,Project Assessment - 2018.10.29,a1if1000002e6qqAAA,006f100000d1hTn,Impala            ,
Rwanda,Western Province,Rusizi,Giheke-Gihundwe,Rwega-Rwahi,Rwega,Rejected,Technical,1014165,,0.0,-2.4334,28.933740000000004,0.0,Project Assessment - 2018.10.29,a1if1000002e6qgAAA,006f100000d1hTi,Rwega            ,
Rwanda,Eastern Province,Nyagatare,Rukomo,Rukomaii-Rurenge,Kabeza,Rejected,Technical,1014389,Suspension,0.0,-1.36432,30.281940000000002,0.0,Project Assessment - 2018.11.18,a1if1000002gbOHAAY,006f100000eeuzO,Kabeza  Rebero  Nyanjye  Biryogo  Rwiju,
Rwanda,Southern Province,Nyaruguru,Ngera,Bit,Sheke,Rejected,Technical,1007550,Suspension,10.0,-2.67224,29.65063,0.0,Project Assessment - 2018.10.29,a1if1000002e6qbAAA,006f100000a86GQ,Bitare  Rusenge         ,
Rwanda,Western Province,Rusizi,Gitambi,Cygwa,Pindura,Rejected,Technical,1007654,Suspended,14.0,-2.594639,28.981427000000004,0.0,Project Assessment - 2018.10.29,a1if1000002e6qWAAQ,006f100000a86I6,Cyingwa  Gahungere         ,
Rwanda,Eastern Province,Ngoma,Kazo,Umukamba,Kagarama,Rejected,Technical,1014388,Suspension,0.0,-2.1866220000000003,30.483667999999998,0.0,Project Assessment - 2018.11.18,a1if1000002gbO2AAI,006f100000eeuzJ,Umukamba            ,Kagarama-Akabaya
Rwanda,Eastern Province,Nyagatare,Gatunda,Cyagaju-Rwesheke,Kabeza,Rejected,Technical,1014394,Suspension,0.0,-1.40815,30.189856,0.0,Project Assessment - 2018.11.18,a1if1000002gbQmAAI,006f100000eeuzn,Kabeza  Rwesheke         ,
Rwanda,Eastern Province,Nyagatare,Karama,Gikundamvura,Nyagasharara,Rejected,Technical,1014391,Suspension,0.0,-1.336893,30.213863,0.0,Project Assessment - 2018.11.18,a1if1000002gbPeAAI,006f100000eeuzY,Gikundamvura cell  Buchara cell  Kabuga  Nyagatoma   ,
Rwanda,Eastern Province,Nyagatare,Katabagemu,Kanyeganyege,Kabaya,Rejected,Technical,1014397,Suspension,0.0,-1.436156,30.307663,0.0,Project Assessment - 2018.11.18,a1if1000002gbRfAAI,006f100000eev02,Kabaya  Rebero  Kabeza      ,
Rwanda,Eastern Province,Nyagatare,Karama,Gikundamvura,Akimpundu,Rejected,Technical,1014390,Suspension,0.0,-1.340982,30.219603999999997,0.0,Project Assessment - 2018.11.18,a1if1000002gbPAAAY,006f100000eeuzT,Gikundamvura  Bushara  Kabuga  Nyagatama   ,
Rwanda,Eastern Province,Nyagatare,Rwimiyaga,Rutungu,Fotorero,Rejected,Technical,1014404,Suspended,0.0,-1.1631719999999999,30.476046000000004,0.0,Project Assessment - 2018.11.18,a1if1000002gbSsAAI,006f100000eev0g,Rubira  Cyamunyana-Agatovu  Gakagati I- Gakagati II  Bweru  Mwendo-Rugaga,
Rwanda,Eastern Province,Gatsibo,Gitoki-Rugarama,Cyabusheshe-Remera,Kivuba,Rejected,Technical,1014412,Suspension,0.0,-1.6842110000000001,30.350028000000002,0.0,Project Assessment - 2018.11.18,a1if1000002gbUKAAY,006f100000eev1K,Cyabusheshe  Remera         ,
Rwanda,Eastern Province,Nyagatare,Katabagema,Katabagema,Kajevuba,Rejected,Technical,1014398,,0.0,-1.4428040000000002,30.274319000000002,0.0,Project Assessment - 2018.11.18,a1if1000002gbRpAAI,006f100000eev07,Kajevuba            ,
Rwanda,Eastern Province,Nyagatare,Katabagema,Katabagema,Kagogo,Rejected,Technical,1014399,,0.0,-1.471113,30.285693,0.0,Project Assessment - 2018.11.18,a1if1000002gbRzAAI,006f100000eev0C,Kagogo            ,
Rwanda,Eastern Province,Gatsibo,Gitoki,Karubungo-Nyamirama,Gisharara,Rejected,Technical,1014411,Suspension,0.0,-1.633869,30.338833,0.0,Project Assessment - 2018.11.18,a1if1000002gbUAAAY,006f100000eev1F,Karubungo  Nyamirama         ,
Rwanda,Eastern Province,Gatsibo,Gitoki,Karubungo-Nyamirama,Nyagacyamo,Rejected,Technical,1014414,Suspension,0.0,-1.6296,30.343077,0.0,Project Assessment - 2018.11.18,a1if1000002gbUjAAI,006f100000eev1U,Nyagacyamo  Isangano  Rwamuhinga-Karubungu  Nyabikenke  Rukiri,
Rwanda,Eastern Province,Nyagatare,Kiyombe,Karujumba,Nyabwongoroka,Rejected,Technical,1014395,Suspension,0.0,-1.432879,30.133993,0.0,Project Assessment - 2018.11.18,a1if1000002gbRBAAY,006f100000eeuzs,Karambo  Nyabwongoroka  Murambi      ,
Rwanda,Eastern Province,Nyagatare,Rwimiyaga,Karushuga,Akagera,Rejected,Technical,1014407,Suspended,0.0,-1.286986,30.550523,0.0,Project Assessment - 2018.11.18,a1if1000002gbTWAAY,006f100000eev0v,Akagera  Karushu         ,
Rwanda,Eastern Province,Nyagatare,Rwempasha,Gasga-Uwkiko,Gasinga,Identified,Requested,1014406,Suspension,0.0,-1.206567,30.347849,0.0,Project Assessment - 2018.11.18,a1if1000002gbTHAAY,006f100000eev0q,Gasinga  Uwinkiko         ,
Rwanda,Eastern Province,Nyagatare,Rwempasha,Cyenjojo-Kab,Cyenjojo,Rejected,Technical,1014405,Suspension,0.0,-1.239774,30.344471000000002,0.0,Project Assessment - 2018.11.18,a1if1000002gbT2AAI,006f100000eev0l,Kabare  Cyenjojo         ,
Rwanda,Eastern Province,Ngoma,Kazo,Gahurire-Kiyonzo,Rugenge,Rejected,Technical,1014421,Suspension,0.0,-2.234163,30.513445,0.0,Project Assessment - 2018.11.18,a1if1000002gbaSAAQ,006f100000eev28,Gahurire  Kinyonzo         ,Rugenge-Kibimba
Rwanda,Eastern Province,Nyagatare,Karama,Ndego,Gakirage,Rejected,Technical,1014416,Suspended,0.0,-1.365045,30.148671999999998,0.0,Project Assessment - 2018.11.18,a1if1000002gbVDAAY,006f100000eev1e,Gakirage  Mutete  Kanyami  Murambi  Matereza,
Rwanda,Eastern Province,Gatsibo,Nyagihanga,Nyamirama,Kigobe,Rejected,Technical,1014419,Suspended,0.0,-1.5762209999999999,30.201582000000002,0.0,Project Assessment - 2018.11.18,a1if1000002gbWQAAY,006f100000eev1t,Nyamirama            ,
Rwanda,Eastern Province,Ngoma,Kazo,Kyonzo-Gahurire,Kibimba,Rejected,Technical,1014422,Suspension,0.0,-2.2381330000000004,30.513978,0.0,Project Assessment - 2018.11.18,a1if1000002gbc9AAA,006f100000eev2D,Kinyonzo  Gahurire         ,Kibimba-Rugenge
Rwanda,Eastern Province,Nyagatare,Tabagwe-Nyagatare,Gitengure-Nyagat,Nshuri,Identified,Identified in Needs Assessment,1007458,Suspension,40.0,-1.308813,30.314539,0.0,Project Assessment - 2018.11.18,a1if1000002gbVrAAI,006f100000a86Ew,Gitengure  Nyagatare         ,
Rwanda,Eastern Province,Gatsibo,Gitoki-Kabarore,Bukomane-Kabaroreii,Gakiri,Rejected,Technical,1014420,Suspension,0.0,-1.6298489999999999,30.379611999999998,0.0,Project Assessment - 2018.11.18,a1if1000002gbWfAAI,006f100000eev1y,Gakiri-Gisaka  Burembo-Rurema  Bukomane  Cyabusheshe cell  Kabingo,
Rwanda,Kigali,Kicukiro,Mwogo-Masaka,Mbabe-Rungunga,Mbabe,Rejected,Technical,1007329,,90.0,-2.028061,30.173231,0.0,Project Assessment - 2018.11.30,a1if1000002hTAiAAM,006f100000a86Cr,             ,
Rwanda,Kigali,Kicukiro,Juru-Masaka,Rusheshe,Cyankongi,Rejected,Technical,1007328,,100.0,-2.048451,30.191276000000002,0.0,Project Assessment - 2018.11.30,a1if1000002hT9pAAE,006f100000a86Cq,             ,
Rwanda,Eastern Province,Bugesera,Kabukuba,Gikana,Gikana,Rejected,Technical,1007327,,140.0,-2.072628,30.204381,0.0,Project Assessment - 2018.11.30,a1if1000002hTA9AAM,006f100000a86Cp,             ,
Rwanda,Western Province,Ngororero,Ngororero-Kageyo,Rususa-Rwamamara,Rwamamara,Complete,In Service,1010941,Suspension,58.0,-1.83113,29.62303,0.0,Project Assessment - 2018.12.8,a1if1000002qukPAAQ,006f100000c5pcI,             ,Rususa-Gasiza
Rwanda,Kigali,Nyarugenge,Nyarugenge,Rwampara,Rwampara-Imena,Rejected,Technical,1014565,Suspension,0.0,-1.971782,30.063077000000003,0.0,Project Assessment - 2018.11.29,a1if1000002hN4vAAE,006f100000efEfp,Rwampara  Imena  Twishorezo      ,
Rwanda,Kigali,Kicukiro,Kigarama,Nyarurama,Cyumbati,Rejected,Technical,1014566,Other,0.0,-1.98426,30.063290000000002,0.0,Project Assessment - 2018.11.29,a1if1000002hNXkAAM,006f100000efEfu,Kivu  Twishorezo         ,
Rwanda,Western Province,Ngororero,Kageyo-Muhororo,,Mubarama,Rejected,Technical,1007420,Suspension,14.0,-1.9135099999999998,29.57821,0.0,Project Assessment - 2018.12.8,a1if1000002qulwAAA,006f100000a86EK,Sanza cell  Kirwa cell         ,Nyaruzenga-Sanza
Rwanda,Western Province,Ngororero,Ngororero-Matyazo,,Satinsyi,Rejected,Technical,1010406,,0.0,-1.75995,29.66276667,0.0,Project Assessment - 2018.12.8,a1if1000002qulrAAA,006f100000bge7o,             ,Kanyya-Kanyenyeri
Rwanda,Eastern Province,Ngoma,Kazo-Gashanda,Umukamba-Munege,Akabaya,Rejected,Technical,1014385,Suspension,0.0,-2.1813849999999997,30.479072,0.0,Project Assessment - 2018.11.18,a1if1000002gbNJAAY,006f100000eeuz4,Umukamba  Munege         ,Akabaya-Gakuto
Rwanda,Eastern Province,Ngoma,Kibungo-Rurenge,Knge-Musya,Kabeza,Rejected,Technical,1014383,Suspended,0.0,-2.144405,30.531062,0.0,Project Assessment - 2018.11.18,a1if1000002gbMGAAY,006f100000eeuyu,Karenge  Musya         ,Kabeza-Rwasaburo
Rwanda,Eastern Province,Nyagatare,Karama,Bushara,Isangano-Kabeza,Rejected,Technical,1014393,Suspension,0.0,-1.349094,30.202762,0.0,Project Assessment - 2018.11.18,a1if1000002gbQIAAY,006f100000eeuzi,Isangano  Rurembo  Bushara center  Ihuriro  Kabeza-Nyakibande,
Rwanda,Eastern Province,Nyagatare,Karama,Nyakiga,Murujanjara,Rejected,Technical,1014392,Suspension,0.0,-1.393255,30.162868,0.0,Project Assessment - 2018.11.18,a1if1000002gbPtAAI,006f100000eeuzd,Karama center  Mabare  Kentarama  Kavumu   ,
Rwanda,Eastern Province,Nyagatare,Matimba,Byimana,Byimana3,Rejected,Technical,1014403,,0.0,-1.109384,30.433798,0.0,Project Assessment - 2018.11.18,a1if1000002gbSdAAI,006f100000eev0b,Byimana            ,
Rwanda,Eastern Province,Nyagatare,Katabagema,Bayigurire,Akindege,Rejected,Technical,1014400,Suspension,0.0,-1.461997,30.264871999999997,0.0,Project Assessment - 2018.11.18,a1if1000002gbSEAAY,006f100000eev0H,Bayigurire  Bimuli         ,
Rwanda,Eastern Province,Nyagatare,Katabagema,Bayigurire,Gasasa,Rejected,Technical,1014401,,0.0,-1.456525,30.280659000000004,0.0,Project Assessment - 2018.11.18,a1if1000002gbSOAAY,006f100000eev0R,Gasasa            ,
Rwanda,Eastern Province,Nyagatare,Karama,Nyakiga,Kavumu,Rejected,Technical,1014396,Suspension,0.0,-1.391233,30.171653999999997,0.0,Project Assessment - 2018.11.18,a1if1000002gbRQAAY,006f100000eeuzx,Karama center  Mabare  Kavumu  Kentarama   ,
Rwanda,Eastern Province,Gatsibo,Rwimbogo,Rwikiro,Kadogo,Rejected,Technical,1014410,,0.0,-1.6602919999999999,30.461698,0.0,Project Assessment - 2018.11.18,a1if1000002gbTvAAI,006f100000eev1A,Byimana  Kabusunzu  Rwikiniro1  Rudogo1   ,
Rwanda,Eastern Province,Gatsibo,Nyagihanga,Kib-Nyagitabire,Bitaba,Rejected,Technical,1014409,Suspended,0.0,-1.5306879999999998,30.210440999999996,0.0,Project Assessment - 2018.11.18,a1if1000002gbTqAAI,006f100000eev15,Bitaba-Kigarama  Bushashara-Murambi  Kukabare-Gashuri  Byimana-Mataba  Rugaragara,
Rwanda,Eastern Province,Nyagatare,Matimba,Cyembogo,Byimana,Rejected,Technical,1014402,,0.0,-1.0667870000000002,30.432848999999997,0.0,Project Assessment - 2018.11.18,a1if1000002gbSYAAY,006f100000eev0W,Byimana            ,
Rwanda,Eastern Province,Nyagatare,Karama,Ndego-Kabuga,Matereza,Identified,Requested,1014415,Suspension,0.0,-1.36087,30.181669,0.0,Project Assessment - 2018.11.18,a1if1000002gbUtAAI,006f100000eev1Z,Materaza  Rusoroza  Kanyami  Murambi  Kabuga cell,
Rwanda,Eastern Province,Nyagatare,Rukomo-Nyagatare,Rurenge-Bushoga,Biryogo,Rejected,Technical,1007454,Suspension,50.0,-1.367991,30.288805,0.0,Project Assessment - 2018.11.18,a1if1000002gbVcAAI,006f100000a86Es,Rurenge  Bushoga         ,
Rwanda,Eastern Province,Ngoma,Kazo,Birenga-Kyonzo-Gahurire,Nyakagezi,Rejected,Technical,1014408,Suspension,0.0,-2.229162,30.514946999999996,0.0,Project Assessment - 2018.11.18,a1if1000002gbTgAAI,006f100000eev10,Birenga  Kinyonzo  Gahuriro      ,Nyakagezi-Kibimba-Rurenge
Rwanda,Eastern Province,Gatsibo,Nyagihinga,Kib,Bwicaro,Rejected,Technical,1014418,,0.0,-1.564462,30.194623999999997,0.0,Project Assessment - 2018.11.18,a1if1000002gbWGAAY,006f100000eev1o,Bwicaro            ,
Rwanda,Eastern Province,Gatsibo,Rwimbogo,Rwikiro,Byimana,Rejected,Technical,1014413,,0.0,-1.658066,30.462945,0.0,Project Assessment - 2018.11.18,a1if1000002gbUUAAY,006f100000eev1P,Byimana            ,
Rwanda,Eastern Province,Nyagatare,Karama-Gitunda,Nyakiga-Nyangari,Murujanjara,Rejected,Technical,1014417,Suspension,0.0,-1.397253,30.163372999999996,0.0,Project Assessment - 2018.11.18,a1if1000002gbVNAAY,006f100000eev1j,Karama centre  Kavumu  Mabare  Kentarama  Mutumba,
Rwanda,Southern Province,Nyanza,Rwabicuma-Cyabakamyi,Nyarusange-Nyabyenga,Kamushi,Identified,Requested,1012830,Suspended,50.0,-2.33542,29.67251,0.0,Project Assessment - 2018.8.18,a1if1000002Vj9AAAS,006f100000d6mY6,Kamushi  Kamuvunyi B  Rwamagana  Rugwa  Nyabinyenga,
Rwanda,Southern Province,Nyanza,Rwabicuma,Cyerezo,Bweramana,Rejected,Technical,1012832,Suspension,0.0,-2.3098,29.695240000000002,0.0,Project Assessment - 2018.8.18,a1if1000002Vj9KAAS,006f100000d6mYL,Gasharu  Bweramana  Cyikirehe  Nyabinyenga   ,
Rwanda,Southern Province,Nyanza,Rwabicuma-Cyabakamyi,Cyerezo-Nyabyenga,Gasharu,Identified,Requested,1012831,Suspended,40.0,-2.31422,29.69336,0.0,Project Assessment - 2018.8.18,a1if1000002Vj9FAAS,006f100000d6mYG,Gasharu  Nyabinyenga  Bweramana  Cyikirehe   ,
Rwanda,Western Province,Rubavu,Nyundo,Terimbere-Rambura,Mucyuzi,Identified,Requested,1014006,Suspension,32.0,-1.69435,29.30102,0.0,Project Assessment - 2018.10.26,a1if1000002e3SLAAY,006f100000d1e0i,Rambura  Nyundo  Rugerero      ,
Rwanda,Western Province,Rusizi,Nyakarenzo,Kanoga,Kankenge1,Rejected,Technical,1013926,Suspended,0.0,-2.53862,28.960729999999998,0.0,Project Assessment - 2018.10.16,a1if1000002n1VGAAY,006f100000d8ApI,Kumana  Kanoga  Kamanura  Ryamaraza  Bahuro,
Rwanda,Southern Province,Gisagara,Muganza,Saga,Uwinyana,Rejected,Technical,1013922,Suspended,0.0,-2.69786,29.90142,0.0,Project Assessment - 2018.10.16,a1if1000002n1MKAAY,006f100000d8AoK,Nyagafumberi  Bucaya  Rwinkuba  Akabacuzi  Nyamiheto,
Rwanda,Western Province,Rusizi,Nyakarenzo-Nkungu,Kanoga-Gat,Kankenge2,Rejected,Technical,1013918,Suspended,0.0,-2.5535799999999997,28.95937,0.0,Project Assessment - 2018.10.16,a1if1000002n1JmAAI,006f100000d8Anv,Kanyovu  Kamanura  Kanoga  Bahuro   ,
Rwanda,Western Province,Rusizi,Nyakarenzo,Kabaga-Kabuye,Gihari,Rejected,Technical,1013925,Suspended,0.0,-2.55375,28.94637,0.0,Project Assessment - 2018.10.16,a1if1000002n1T5AAI,006f100000d8Ap8,Nyamugari  Kabumbwe  Kanyovu  Kumana - Kanoga  Ryamaraza - Bahuro,
Rwanda,Western Province,Rubavu,Nyundo,Nyundo,Gasenyi,Rejected,Technical,1007603,Suspension,19.0,-1.699166,29.336944,0.0,Project Assessment - 2018.8.11,a1if10000025nzrAAA,006f100000a86HH,Gasenyi  Rumbati  Muhira      ,
Rwanda,Western Province,Karongi,Bwishyura,Burumba,Nyabikenke,Rejected,Technical,1013864,,0.0,-2.0767599999999997,29.38212,0.0,Project Assessment - 2018.10.14,a1if1000002mrGtAAI,006f100000d888l,Nyabikenke            ,Nyabikenke
Rwanda,Western Province,Karongi,Bwishyura,Gasura-Kiha,KwaJackson,Rejected,Technical,1013865,Suspension,0.0,-2.06989,29.342,0.0,Project Assessment - 2018.10.14,a1if1000002mrHNAAY,006f100000d888q,Gisayo  Nyagahinga  Nyegabo      ,Gisayo-Nyegabo
Rwanda,Southern Province,Nyanza,Cyabakamyi-Rwabicuma,Nyabyenga-Nyarusange,Rugwa,Complete,In Service,1007525,Suspended,48.0,-2.3297790000000003,29.668688,0.0,Project Assessment - 2018.6.28,a1if10000024BwwAAE,006f100000a86G1,Cyarwa  Rwamagana         ,
Rwanda,Southern Province,Nyanza,Mukingo,Kiruri,Nyankunamirwa,Rejected,Technical,1007523,Suspension,16.0,-2.2801400000000003,29.72578,0.0,Project Assessment - 2018.6.28,a1if10000024BwmAAE,006f100000a86Fz,             ,
Rwanda,Southern Province,Nyanza,Cyabakamyi,Nyarurama,Macigati,Rejected,Technical,1007527,Suspension,22.0,-2.30422,29.65685,0.0,Project Assessment - 2018.6.28,a1if10000024BwrAAE,006f100000a86G3,             ,
Rwanda,Southern Province,Nyanza,Cyabakamyi,Rubona-Kadano,Kadaho,Rejected,Social,1012380,Suspension,45.0,-2.266448,29.647273,0.0,Project Assessment - 2018.6.28,a1if10000024Bx1AAE,006f100000cPI5w,Kabeza  Nyabishike  Nyarutovu  Kabere   ,
Rwanda,Northern Province,Gicumbi,Muko,Cyamuhda-Ngange,Rudogo,Rejected,Social,1010844,,0.0,-1.729575,30.231912,0.0,Project Assessment - 2018.2.23,a1if1000002LsL1AAK,006f100000c5V3K,Ntonyanga  Rudogo         ,
Rwanda,Northern Province,Gicumbi,Cyumba-Manyagiro,Gasunzu-Kabuga,Gasunzu,Rejected,Social,1010839,,0.0,-1.506683,30.023419,0.0,Project Assessment - 2018.2.23,a1if1000002LsKcAAK,006f100000c5V2b,Mugera  Mugera         ,
Rwanda,Northern Province,Gicumbi,Kaniga,Bugomba,Gatare,Rejected,Technical,1010840,,0.0,-1.455716,30.0494,0.0,Project Assessment - 2018.2.23,a1if1000002LsKhAAK,006f100000c5V2g,Ryakabanda  Gatare  Rugarama      ,
Rwanda,Northern Province,Gicumbi,Manyagiro,Kabuga-Kajevuba,Rubindi (Kajevuba),Rejected,Social,1010849,,0.0,-1.53941,30.00825,0.0,Project Assessment - 2018.2.23,a1if1000002LsLQAA0,006f100000c5V5L,Rusebeya  Rubindi  Nyarukombe      ,
Rwanda,Northern Province,Gicumbi,Muko,Cyamuhda,Mayogi,Rejected,Social,1010847,,38.0,-1.7011990000000001,30.209405,0.0,Project Assessment - 2018.2.23,a1if1000002LsLGAA0,006f100000c5V3o,Rugaragara  Mayogi  Gicuregenya  Mwendo  Kigoma,
Rwanda,Northern Province,Gicumbi,Giti,Gatobotobo-Karika,Rugarama,Rejected,,1010845,,0.0,-1.7724099999999998,30.22087,0.0,Project Assessment - 2018.2.23,a1if1000002LsL6AAK,006f100000c5V3U,Rugarama  Karega  Kababito      ,Rugarama-Cyeru
Rwanda,Northern Province,Gakenke,Mataba,Nyundo-Kabuyora,Nyarusange,Identified,Requested,1013792,Suspended,100.0,-1.72848,29.765890000000002,0.0,Project Assessment - 2018.10.7,a1if1000002mC50AAE,006f100000d7wv0,Gitaba  Kabuyora  Mwanza  Gihororo   ,
Rwanda,Northern Province,Gakenke,Muzo,Mwiyo-Gitoki,Mugambazi,Rejected,Technical,1013788,Suspended,0.0,-1.72692,29.723059999999997,0.0,Project Assessment - 2018.10.7,a1if1000002mC4gAAE,006f100000d7wug,Gitoki  Nyagasozi  Rubayo  Nyangoma   ,
Rwanda,Northern Province,Gicumbi,Giti,Gatobotobo,Nyamirambo 2,Rejected,,1010846,,0.0,-1.7613299999999998,30.208370000000002,0.0,Project Assessment - 2018.2.23,a1if1000002LsLBAA0,006f100000c5V3e,Karika  Nyamirambo         ,Nyamirambo
Rwanda,Northern Province,Gakenke,Cyabingo,Rukore-Rugendabari,Kumusenyi,Rejected,Technical,1013796,Suspended,0.0,-1.5905,29.7052,0.0,Project Assessment - 2018.10.7,a1if1000002mCSaAAM,006f100000d7wvK,Ntaraga  Nyamugari         ,
Rwanda,Northern Province,Gakenke,Muhondo,Rwkuba-Cyimbogo,Cyimbogo,Rejected,Technical,1013794,Suspended,0.0,-1.81602,29.858759999999997,0.0,Project Assessment - 2018.10.7,a1if1000002mC5AAAU,006f100000d7wvA,Kimbogo  Ngayaki  Kanyana      ,
Rwanda,Northern Province,Gakenke,Rusasa,Kamonyi-Gapfura,Kigembe,Rejected,Technical,1013797,Suspended,0.0,-1.62963,29.65738,0.0,Project Assessment - 2018.10.7,a1if1000002mCSfAAM,006f100000d7wvZ,Gapfura  Gakindo  Bukiza      ,
Rwanda,Northern Province,Gakenke,Muzo,Kiryamo,Cyiryamo,Rejected,Technical,1013787,Suspended,0.0,-1.68275,29.742240000000002,0.0,Project Assessment - 2018.10.7,a1if1000002mC4bAAE,006f100000d7wub,Rugege  Rugarama         ,
Rwanda,Northern Province,Gakenke,Cyabingo,Muhororo-Gakoro,Kugasumo,Rejected,Technical,1013795,Suspended,0.0,-1.5600100000000001,29.69342,0.0,Project Assessment - 2018.10.7,a1if1000002mCQEAA2,006f100000d7wvF,Gihango  Tongoburo  Gakoro      ,
Rwanda,Northern Province,Gakenke,Rusasa,Kamonyi-Gapfura,Kirombe,Rejected,Technical,1013799,Suspended,0.0,-1.63737,29.65462,0.0,Project Assessment - 2018.10.7,a1if1000002mCp9AAE,006f100000d7wvj,Gapfura  Karuhunge         ,
Rwanda,Northern Province,Gakenke,Rushashi,Razi-Gikongoro,Razi,Rejected,Technical,1013801,Suspension,0.0,-1.6969900000000002,29.86647,0.0,Project Assessment - 2018.10.7,a1if1000002mCqFAAU,006f100000d7wvt,Gikongoro  Kirwa  Gahinga      ,
Rwanda,Northern Province,Gakenke,Rushashi,Shombwe-Gatwa-Burimba-Kara,Mbizi,Rejected,Technical,1013802,Suspension,0.0,-1.7231400000000001,29.84565,0.0,Project Assessment - 2018.10.7,a1if1000002mCqKAAU,006f100000d7ww3,Gatwa  Murara  Gatare  Kivumu   ,
Rwanda,Northern Province,Gakenke,Cyabingo,Rukore-Nyamugari,Kugatare,Rejected,Technical,1013798,Suspended,0.0,-1.5932,29.705059999999996,0.0,Project Assessment - 2018.10.7,a1if1000002mCSkAAM,006f100000d7wve,Rugendabari  Ntaraga         ,
Rwanda,Northern Province,Gakenke,Rushashi,Kageyo-Karambi-Burimba-Kabuye,Kubahamya,Rejected,Technical,1013800,Suspension,0.0,-1.7349400000000001,29.854779999999998,0.0,Project Assessment - 2018.10.7,a1if1000002mCqAAAU,006f100000d7wvo,Karambi  Kabuye  Nganzo  Kabona   ,
Rwanda,Western Province,Karongi,Mubuga,Kagabiro-Ryaruhanga,Nyakabande-Bitaba,Confirmed,,1015561,Suspended,56.0,-2.11713,29.31672,0.0,Project Assessment - 2018.10.14,a1if1000002mrHwAAI,006f100000fHAHX,Nyakabande  Bikenke  Nyabinyenga  Rwamiko  Kigabiro,
Rwanda,Western Province,Rutsiro,Nyabirasi,Ngoma,Kazo,Complete,In Service,1011307,Suspended,58.0,-1.7728599999999999,29.375140000000002,0.0,Project Assessment - 2018.7.11,a1if10000024MxGAAU,006f100000cME57,Kazo  Gashihe  Nkuna  Gisayo   ,
Rwanda,Western Province,Karongi,Gishyita,Cyanya-Kigarama,Muryaruzigura,Rejected,Technical,1013868,Suspension,0.0,-2.16278,29.289209999999997,0.0,Project Assessment - 2018.10.14,a1if1000002mrIfAAI,006f100000d8895,Gitovu  Mpatsi  Magarama  Gatare  Gitwa,Gitovu-Gitwa
Rwanda,Western Province,Karongi,Gishyita,,Gahinga,Rejected,Technical,1013872,Suspension,0.0,-2.11586,29.265209999999996,0.0,Project Assessment - 2018.10.14,a1if1000002mrM3AAI,006f100000d889U,Mboneko  Buhoro  Tura  Gisoro   ,Mboneko
Rwanda,Western Province,Karongi,Mubuga,Kagabiro-Ryaruhanga,Kagarama,Prospecting,,1013867,Suspension,58.0,-2.1383799999999997,29.335040000000003,0.0,Project Assessment - 2018.10.14,a1if1000002mrILAAY,006f100000d8890,Kagarama  Jurwe  Rubazo  Gahabwe village  Kinyege,Kagarama-Jurwe
Rwanda,Western Province,Karongi,Gishari,,Kinjongo,Rejected,Technical,1007392,Suspension,7.0,-2.14811,29.52184,0.0,Project Assessment - 2018.10.14,a1if1000002mrQPAAY,006f100000a86Ds,             ,Nyarusange-Birambo
Rwanda,Western Province,Karongi,Ruganda,Kyovu,Rukoro,Rejected,Technical,1013862,Suspended,0.0,-2.19868,29.4931,0.0,Project Assessment - 2018.10.14,a1if1000002mr8LAAQ,006f100000d888b,Bizitiro  Kanyegenyege  Kabaranda      ,Bizitiro
Rwanda,Western Province,Karongi,Gashari,Tongati-Kyovu,Wagati,Rejected,Technical,1013876,Suspended,0.0,-2.18942,29.507745,0.0,Project Assessment - 2018.10.14,a1if1000002mry7AAA,006f100000d889y,Nyagisozi  Kabaranda         ,Nyagisozi-Kabara
Rwanda,Western Province,Karongi,Gishyita,Musasa,Rwagisasa,Rejected,Technical,1013871,Suspended,0.0,-2.14492,29.301370000000002,0.0,Project Assessment - 2018.10.14,a1if1000002mrLAAAY,006f100000d889K,Rwagisasa  Kibaya  Kimbo  Kamunungu  Musebeya,Kibaya-Kimbo-Rwagisasa
Rwanda,Western Province,Rutsiro,Mushubati,Cyarusera-Kabuga,Mugeri,Complete,In Service,1012457,Suspended,63.0,-2.02408333,29.41472222,0.0,Project Assessment - 2018.7.11,a1if10000024MxBAAU,006f100000cPXEE,Mugeri  Miraramo  Sanzare  Gihara  Bandamiko,
Rwanda,Western Province,Ngororero,Nyange-Ndaro,,Sodoma,Identified,,1012823,Suspension,66.0,-2.014133,29.614266999999998,0.0,Project Assessment - 2018.12.8,a1if1000002qum1AAA,006f100000d6lDD,Kamuyobora  Butare  Gakoma  Murambi  Gasave,But-Kamuyobora
Rwanda,Southern Province,Nyaruguru,Gorwe,Rimbanya,Rimbamya,Rejected,Technical,1007578,,17.0,-2.6378056,29.5095,0.0,Project Assessment - 2018.12.9,a1if1000002qv2iAAA,006f100000a86Gs,             ,
Rwanda,Northern Province,Gicumbi,Ruvune,Rebero-Gashirira,Gahanda,Rejected,Social,1010842,,0.0,-1.6218190000000001,30.165954,0.0,Project Assessment - 2018.2.23,a1if1000002LsKrAAK,006f100000c5V2q,Gatare  Nyarubuye  Kagasha  Rwamiko   ,
Rwanda,Northern Province,Gicumbi,Kageyo,Kabuga-Muti,Nyarubande-Gatobotobo,Rejected,Technical,1010843,,35.0,-1.6623,30.08107,0.0,Project Assessment - 2018.2.23,a1if1000002LsKwAAK,006f100000c5V35,Gatobotobo  Nyarubande         ,
Rwanda,Northern Province,Gakenke,Janja,Gashyamba,Gikokwe,Rejected,Technical,1013789,Suspended,0.0,-1.67796,29.702609999999996,0.0,Project Assessment - 2018.10.7,a1if1000002mC4lAAE,006f100000d7wul,Muhororo  Gashyamba         ,
Rwanda,Northern Province,Gakenke,Janja,Rukungu,Cyifuzo,Rejected,Technical,1013791,Suspended,0.0,-1.65975,29.72655,0.0,Project Assessment - 2018.10.7,a1if1000002mC4vAAE,006f100000d7wuv,Cyifuzo  Rusebeya         ,
Rwanda,Northern Province,Gakenke,Janja,Gatwa-Nyagisozi,Burera,Rejected,Technical,1013790,Suspended,0.0,-1.6803299999999999,29.690279999999998,0.0,Project Assessment - 2018.10.7,a1if1000002mC4qAAE,006f100000d7wuq,Nyagisozi            ,
Rwanda,Northern Province,Gakenke,Janja,Gakdo-Bukerera,Gihonga,Rejected,Technical,1013793,Suspension,0.0,-1.64305,29.67318,0.0,Project Assessment - 2018.10.7,a1if1000002mC55AAE,006f100000d7wv5,Bukerera  Rurambi         ,
Rwanda,Western Province,Ngororero,Nyange-Ndaro,Vuganyana-Kiba,Kivomo,Complete,In Service,1013353,Suspension,86.0,-2.026616,29.576320000000003,0.0,Project Assessment - 2018.12.8,a1if1000002qum6AAA,006f100000d7Eat,             ,Karambo-Rwambogo
Rwanda,Western Province,Karongi,Ruganda,Kyovu,Bizitiro,Rejected,Technical,1013869,Suspension,0.0,-2.19785667,29.496655,0.0,Project Assessment - 2018.10.14,a1if1000002mrJTAAY,006f100000d889A,Bizitiro  Kanyegenyege  Kabaranda      ,Bizitiro
Rwanda,Western Province,Karongi,Bwishyura,Gitarama,Gomba,Identified,Requested,1013873,Suspended,0.0,-2.09219,29.38608,0.0,Project Assessment - 2018.10.14,a1if1000002mrMcAAI,006f100000d889Z,Gomba  Nyamigina  Kirambo  Kigezi  Kivomo,Gomba-Nyamiga
Rwanda,Western Province,Karongi,Mubuga,Kagabiro-Kagabiro,Gasharu,Rejected,Technical,1013874,Suspension,0.0,-2.12272,29.34027,0.0,Project Assessment - 2018.10.14,a1if1000002mrPgAAI,006f100000d889e,Kagarama  Ruhondo  Buhari      ,Kagarama-Buhari
Rwanda,Western Province,Karongi,Ruganda,Kyovu,Kanyegenyege,Rejected,Technical,1013877,Suspended,0.0,-2.19348,-29.49645,0.0,Project Assessment - 2018.10.14,a1if1000002ms1uAAA,006f100000d88A3,Kanyegenyege  Bizitiro  Kabaranda      ,Kanyegenyege
Rwanda,Southern Province,Ruhango,Mwendo,Gafunzo-Saruheshyi,Gasharu,Rejected,Technical,1010409,Suspension,0.0,-2.1755400000000003,30.69667,0.0,Project Assessment - 2018.12.12,a1if1000002qxivAAA,006f100000bgsNQ,Ruhamagariro  Gasharu  Gaseke  Ruhondo   ,
Rwanda,Northern Province,Burera,Nemba,Rushara,Kidomo,Rejected,Technical,1013246,,0.0,-1.5650700000000002,29.839159999999996,0.0,Project Assessment - 2018.12.12,a1if1000002qxibAAA,006f100000d761B,             ,Cyave
Rwanda,Southern Province,Huye,Karama,Gahororo,Buhoro,Rejected,Technical,1007376,,8.0,-2.62627,30.6261,0.0,Project Assessment - 2018.12.12,a1if1000002qxigAAA,006f100000a86Dc,             ,
Rwanda,Southern Province,Ruhango,Kinihira-Mwendo,Ruka-Gafunzo,Nyamigina 2,Rejected,Technical,1007606,Suspension,22.0,-2.17262,30.6741,0.0,Project Assessment - 2018.12.12,a1if1000002qxj0AAA,006f100000a86HK,Kabacuzi  Nyarubumbiro  Nyamigina  Buhoro   ,
Rwanda,Southern Province,Huye,Rwaniro-Nyagisozi,Nyaruhombo-Kirambi,Nyaruhombo,Identified,,1009280,Suspension,0.0,-2.41201,29.674390000000002,0.0,Project Assessment - 2018.12.12,a1if1000002qxiqAAA,006f100000aWV5f,Gasharu  Kamwambi  Mpaza  Bweru   ,
Rwanda,Southern Province,Huye,Karama,Muhembe-Gahororo,Uwimpundu,Rejected,Technical,1007379,Suspension,7.0,-2.62437,30.645529999999997,0.0,Project Assessment - 2018.12.12,a1if1000002qxilAAA,006f100000a86Df,Uwimpundu  Uwarugondo         ,
Rwanda,Southern Province,Kamonyi,Runda,Muganza,Kigabiro 2,Rejected,Technical,1014333,Suspension,0.0,-1.9606029999999999,29.972412,0.0,Project Assessment - 2018.11.16,a1if1000002gMyZAAU,006f100000eesiy,Kigabiro  Musebeya         ,
Rwanda,Southern Province,Gisagara,Mamba,Muyaga-Ramba,Bojo,Rejected,Technical,1013574,Suspension,0.0,-2.50203,29.917140000000003,0.0,Project Assessment - 2018.9.23,a1if1000002YQiCAAW,006f100000d7bAH,Ruhamagariro  Shyembe  Butezi - Kibumba  Murambi  Runazi,
Rwanda,Eastern Province,Nyagatare,Kiyombe,Gataba-Kabungo,Rutete,Rejected,Technical,1014792,Suspended,0.0,-1.419195,30.104228000000003,0.0,Project Assessment - 2018.12.12,a1if1000002qxLGAAY,006f100000efhn7,Rutete  Kwiperu-Rwabashanja  Nyakabungo-Ruhonwa  Rugarama  Rwamushe-Bitare,
Rwanda,Southern Province,Kamonyi,Runda,Muganza,Kigabiro 1,Rejected,Technical,1014332,Suspended,0.0,-1.964977,29.975556,0.0,Project Assessment - 2018.11.16,a1if1000002gMyUAAU,006f100000eesit,Kigabiro  Ruyenzi         ,
Rwanda,Southern Province,Nyanza,Nyagisozi,,Nyaruvumu,Identified,,1007899,Suspension,95.0,-2.3381,29.6548,0.0,Project Assessment - 2018.12.12,a1if1000002qxnRAAQ,006f100000aA0hf,             ,
Rwanda,Northern Province,Musanze,Muko,Cyivugiza,Gakoro~muhe,Rejected,Technical,1013464,Suspension,0.0,-1.530129,29.631873,0.0,Project Assessment - 2018.9.16,a1if1000002YAG5AAO,006f100000d7Q4x,Gakoro  Nyakanama  Kamutara      ,
Rwanda,Northern Province,Musanze,Musanze-Shingiro-Kimonyi,Nyarubuye-Rwambogo-Kibuguzo,Rwunga,Identified,Requested,1013465,Suspended,55.0,-1.492419,29.573354,0.0,Project Assessment - 2018.9.16,a1if1000002YAGAAA4,006f100000d7Q52,Kimbazi  Nyundo  Ndorahe  Rwunga  Tero,
Rwanda,Northern Province,Burera,Kinyababa,Bugamba,Karambi,Rejected,Technical,1007334,Other,6.0,-1.39214,29.81063,0.0,Project Assessment - 2018.9.16,a1if1000002YAIaAAO,006f100000a86Cw,Cyogo  Kirwa  Gako      ,
Rwanda,Northern Province,Musanze,Gataraga,Rungu,Nyabirehe~ Nyarubande,Rejected,Technical,1013466,Suspended,0.0,-1.548732,29.515524,0.0,Project Assessment - 2018.9.16,a1if1000002YAGFAA4,006f100000d7Q57,Gahira  Gatondori  Kampande  Nyarubande  Gatovu,
Rwanda,Northern Province,Burera,Kinyababa,Bugambo,Bugambo,Rejected,Technical,1007332,Suspension,29.0,-1.3769999999999998,29.807290000000002,0.0,Project Assessment - 2018.9.16,a1if1000002YAIVAA4,006f100000a86Cu,Gatare  Kabingo  Kirwa      ,
Rwanda,Northern Province,Musanze,Gataraga,Murago,Rufugwe,Rejected,Technical,1013472,Suspension,0.0,-1.543877,29.546122999999998,0.0,Project Assessment - 2018.9.16,a1if1000002YAGjAAO,006f100000d7Q5b,Rukingo  Kaberege  Manjali  Karurambi   ,
Rwanda,Northern Province,Musanze,Gacaca,Gakoro,Kurimurora,Rejected,Social,1013480,Suspended,0.0,-1.494191,29.715384999999998,0.0,Project Assessment - 2018.9.16,a1if1000002YAHNAA4,006f100000d7Q6F,Murora            ,
Rwanda,Southern Province,Nyaruguru,Cyahinda,Coko,Gitara,Rejected,Technical,1007553,Suspension,30.0,-2.71768,29.59726333,0.0,Project Assessment - 2018.9.16,a1if1000002YAIGAA4,006f100000a86GT,Gitara  Ryamarembo  Ruko  Coko  Uwamuhizi,
Rwanda,Western Province,Karongi,Gitesi-Rugabano,Rwariro-Rwungu,Kamatabaro,Rejected,Technical,1013713,Suspension,0.0,-2.14826,29.46926,0.0,Project Assessment - 2018.9.28,a1if1000002YulkAAC,006f100000d7jEB,Karwiru  Rwungu  Rurumbu  Rusekera  Nyabikenke,Karwiru-Rwungu
Rwanda,Western Province,Karongi,Rwankuba,Nyakamira-Rubumba,Mburabuturo,Identified,Requested,1013719,Suspended,37.0,-2.18978,29.420209999999997,0.0,Project Assessment - 2018.9.28,a1if1000002YumOAAS,006f100000d7jEf,Himbo  Mahembe  Gishwati  Kigarama  Rucura,Mahembe-Himbo
Rwanda,Eastern Province,Kayonza,Rwinkwavu,Nkondo,Akayebe,Rejected,Technical,1007395,Suspension,45.0,-1.92998,30.60766,0.0,Project Assessment - 2018.9.28,a1if1000002YulpAAC,006f100000a86Dv,Nkondo  Nyabihare  Akayebe      ,
Rwanda,Eastern Province,Kayonza,Kabare,Kirehe,Gikombe,Rejected,Technical,1013707,Suspended,0.0,-2.0901,30.659959999999998,0.0,Project Assessment - 2018.9.28,a1if1000002YtyTAAS,006f100000d7jDN,Gikombe  Gahama  Rompuhwe      ,
Rwanda,Northern Province,Musanze,Gashaki,Kivumu,Ruhehe,Rejected,Social,1013475,Suspended,0.0,-1.535683,29.745093,0.0,Project Assessment - 2018.9.16,a1if1000002YAGyAAO,006f100000d7Q5q,Nyakariba  Kamatete  Murandi  Kibinyogote   ,
Rwanda,Northern Province,Musanze,Muko-Muhoza,Cyivugiza,Nyakanama 2,Rejected,Technical,1013467,Suspension,0.0,-1.5275809999999999,29.627390000000002,0.0,Project Assessment - 2018.9.16,a1if1000002YAGKAA4,006f100000d7Q5C,Buhoro  Nyakanama  Gakoro  Kamutara   ,
Rwanda,Northern Province,Musanze,Muko,Cyivugiza,Nyakanama 1,Rejected,Technical,1013468,Suspended,0.0,-1.532046,29.628809999999998,0.0,Project Assessment - 2018.9.16,a1if1000002YAGPAA4,006f100000d7Q5H,Nyakanama  Buhoro  Gakoro  Kamutara   ,
Rwanda,Northern Province,Musanze,Muko,Cyivugiza,Gakoro 2 ~ Rwebeya,Rejected,Technical,1013469,Suspension,0.0,-1.5295239999999999,29.633422999999997,0.0,Project Assessment - 2018.9.16,a1if1000002YAGUAA4,006f100000d7Q5M,Gakoro  Nyakanama  Kamutara      ,
Rwanda,Northern Province,Musanze,Gacaca,Gasakuza,Nyarubuye,Rejected,Technical,1013463,Suspension,0.0,-1.523318,29.691622,0.0,Project Assessment - 2018.9.16,a1if1000002YAG0AAO,006f100000d7Q4s,Nyamugari  Karama  Rungu  Kanama   ,
Rwanda,Northern Province,Musanze,Rwaza-Rusasa,Kavumu,Kavumu,Rejected,Technical,1013474,Suspended,0.0,-1.596674,29.658056,0.0,Project Assessment - 2018.9.16,a1if1000002YAGtAAO,006f100000d7Q5l,Kavumu  Gisorora  Tane  Murori   ,
Rwanda,Southern Province,Nyaruguru,Nyabimata,Kabere-Nyamishungeru,Muyira,Rejected,Technical,1007589,Suspended,16.0,-2.7211111,29.448638899999995,0.0,Project Assessment - 2018.9.28,a1if1000002Yv6nAAC,006f100000a86H3,Muyira  Nyirarunazi         ,
Rwanda,Northern Province,Burera,Kinyababa,Rutovu,Nyabizi ya 1,Identified,Requested,1013496,Suspended,0.0,-1.3300100000000001,29.82555,0.0,Project Assessment - 2018.9.16,a1if1000002YAJTAA4,006f100000d7Q9r,Nyabizi 1  Nyabizi 2  Nyabizi 3      ,
Rwanda,Western Province,Karongi,Rwankuba-Mutuntu,Nyakamira-Kivumu,Karambo,Rejected,Technical,1013720,Suspension,0.0,-2.18681,29.42727,0.0,Project Assessment - 2018.9.28,a1if1000002YumTAAS,006f100000d7jEk,Mahembe  Rucura  Kivumu  Musango  Nyarushekera,Mahembe-Kivumu
Rwanda,Eastern Province,Kayonza,Mwili,Nyawera,Muhozi,Rejected,Social,1013711,Suspension,0.0,-1.9054,30.55323,0.0,Project Assessment - 2018.9.28,a1if1000002YulQAAS,006f100000d7jDw,Muhozi  Rutare  Ryakibanda  Kirambo 1   ,
Rwanda,Northern Province,Burera,Bungwe,Tumba,Nyarukore,Rejected,Technical,1013708,Suspended,0.0,-1.5066,29.99458,0.0,Project Assessment - 2018.9.28,a1if1000002Yu5tAAC,006f100000d7jDX,Murambo  Nyamabare  Nyarukore      ,
Rwanda,Southern Province,Nyaruguru,Nyabimata,Bihembe,Bihembe,Rejected,Technical,1007536,Suspended,10.0,-2.69544,29.45618,0.0,Project Assessment - 2018.9.28,a1if1000002Yv6iAAC,006f100000a86GC,Kabere  Gihemvu         ,
Rwanda,Northern Province,Burera,Kinyababa,Bugamba,Karunga,Rejected,Technical,1013487,Suspended,0.0,-1.38143,29.81682,0.0,Project Assessment - 2018.9.16,a1if1000002YAIkAAO,006f100000d7Q98,Kabingo  Kirwa  Ndabizi      ,
Rwanda,Southern Province,Nyaruguru,Cyahinda-Rusenge,Coko,Uwamuhizi,Rejected,Local Investment,1007558,,30.0,-2.71525,29.5959167,0.0,Project Assessment - 2018.9.16,a1if1000002YAHmAAO,006f100000a86GY,             ,
Rwanda,Northern Province,Burera,Butaro,Muhotora,Cyahera,Rejected,Technical,1013710,Suspension,0.0,-1.43601,29.850179999999998,0.0,Project Assessment - 2018.9.28,a1if1000002YuKZAA0,006f100000d7jDh,Cyahera  Gahunge  Gahinga      ,
Rwanda,Eastern Province,Kayonza,Rwinkwavu,Mbarara,Gahushyi,Rejected,Technical,1007394,Suspended,12.0,-1.97849,30.58137,0.0,Project Assessment - 2018.9.28,a1if1000002YulaAAC,006f100000a86Du,Mbarara 2  Gahushyi  Mbarara 1  Mutembo   ,
Rwanda,Northern Province,Musanze,Muko,Cyivugiza,Gakoro 1,Rejected,Technical,1013478,Suspended,0.0,-1.5274159999999999,29.631312,0.0,Project Assessment - 2018.9.16,a1if1000002YAHDAA4,006f100000d7Q65,Gakoro  Nyakanama  Kamutara      ,
Rwanda,Northern Province,Musanze,Musanze,Kabazungu,Kidendezi,Rejected,Technical,1013471,Suspension,0.0,-1.47301,29.532329999999998,0.0,Project Assessment - 2018.9.16,a1if1000002YAGeAAO,006f100000d7Q5W,"Kidendezi  Nyabageni  Rucumu  Susa  Shonero, kamata",
Rwanda,Northern Province,Burera,Kinyababa,Rutovu,Kwa Cosma,Rejected,Technical,1013495,Suspended,0.0,-1.32782,29.831059999999997,0.0,Project Assessment - 2018.9.16,a1if1000002YAJOAA4,006f100000d7Q9m,Nyakizi 1  Nyabizi 3  Nyabizi 2      ,
Rwanda,Western Province,Karongi,Gitesi,Kirambo-Munanira,Ryashyomba,Rejected,Technical,1013712,Suspended,0.0,-2.1234599999999997,29.407629999999997,0.0,Project Assessment - 2018.9.28,a1if1000002YulVAAS,006f100000d7jE1,Nzabuhara  Nyarucyamo  Nyarusange  Buye  Rwintare,Nzabuhara-Nyarucyamo
Rwanda,Western Province,Nyamasheke,Kanjongo,Kigoya,Gitongo,Rejected,Technical,1013722,Suspension,0.0,-2.3120950000000002,29.149186,0.0,Project Assessment - 2018.9.28,a1if1000002YupSAAS,006f100000d7jF9,Kigugu  Kirambo         ,
Rwanda,Northern Province,Burera,Bungwe,Mudugali,Sangabuzi,Rejected,Technical,1013709,Suspension,0.0,-1.47722,29.94955,0.0,Project Assessment - 2018.9.28,a1if1000002Yu8dAAC,006f100000d7jDc,Sangabuzi  Rubayu  Kivumu  Mushunga   ,
Rwanda,Western Province,Nyamasheke,Mahembe,Gisoke,Mugaseke,Identified,Requested,1013721,Suspended,60.0,-2.2169380000000003,29.283485,0.0,Project Assessment - 2018.9.28,a1if1000002YunbAAC,006f100000d7jEu,Kanyoni  Muramba  Fumba  Kivumu  Kamashinge,
Rwanda,Western Province,Nyabihu,Rambura-Mulinga,Kibisabo-Rwantobo,Gitinda,Identified,Identified in Needs Assessment,1007453,Suspended,9.0,-1.70215,29.513090000000002,0.0,Project Assessment - 2018.8.17,a1if1000002Vi6yAAC,006f100000a86Er,Karambi  Rwandarugari         ,
Rwanda,Southern Province,Nyamagabe,Buruhukiro,Kizimyamuriro,Mugote,Identified,Identified in Needs Assessment,1007477,Suspended,60.0,-2.4477333,29.41455333,0.0,Project Assessment - 2018.8.17,a1if1000002Vi8BAAS,006f100000a86FF,Mugote  Gikungu  Tantamara  Mujerenge   ,
Rwanda,Western Province,Nyabihu,Jenda,Nyirakigugu,Nyamutukura,Rejected,Technical,1007450,Suspended,11.0,-1.61806,29.472520000000003,0.0,Project Assessment - 2018.8.17,a1if1000002Vi73AAC,006f100000a86Eo,Nyamutukura  Jenda         ,
Rwanda,Southern Province,Nyamagabe,Buruhukioro,Bishyiga,Bishyiga,Rejected,Technical,1012803,Suspended,0.0,-2.42353667,29.46039667,0.0,Project Assessment - 2018.8.17,a1if1000002Vi7cAAC,006f100000d6krJ,Bishgiga  Nyarubande         ,
Rwanda,Northern Province,Gakenke,Kivuruga,,Karuhunge,Rejected,Technical,1007354,Suspension,25.0,-1.6025,29.70666,0.0,Project Assessment - 2018.8.17,a1if1000002Vi8aAAC,006f100000a86DG,Kirwa  Karuhunge  Gasakuza      ,
Rwanda,Southern Province,Nyaruguru,Nyabimata,Nyabimata,Nyabimata,Identified,Identified in Needs Assessment,1007538,Suspended,18.0,-2.69445,29.45532,0.0,Project Assessment - 2018.9.28,a1if1000002Yv7MAAS,006f100000a86GE,Nyabimata  Gihemvu  Tangabo  Bwerere  Gituntu,
Rwanda,Southern Province,Nyamagabe,Buruhukiro,Muni,Uwinzovu,Rejected,,1012806,Suspension,0.0,-2.43816,29.39109667,0.0,Project Assessment - 2018.8.17,a1if1000002Vi7wAAC,006f100000d6krd,Uwinzovu  Tantamara         ,
Rwanda,Southern Province,Nyamagabe,Buruhukiro,Bushigishigi,Rusekera,Rejected,Technical,1007486,Suspended,19.0,-2.4518150000000003,29.43508667,0.0,Project Assessment - 2018.8.17,a1if1000002Vi81AAC,006f100000a86FO,Rusekera village  Bushigishigi         ,
Rwanda,Northern Province,Gicumbi,Ruvune,Rebero-Gashirira,Kirwa,Rejected,Technical,1009702,Suspension,0.0,-1.61168,30.15833,0.0,Project Assessment - 2018.8.17,a1if1000002Vi8VAAS,006f100000bMJxu,Kirwa  Nyarubuye  Remera  Gatare   ,Kirwa-Nyarubuye
Rwanda,Western Province,Rubavu,Kanama,Karambo-Ndongoshoru,Gashasho,Identified,Requested,1007600,Suspended,62.0,-1.71333,29.3925,0.0,Project Assessment - 2018.8.17,a1if1000002Vi8LAAS,006f100000a86HE,Ndongoshoru  Gashasho         ,
Rwanda,Northern Province,Rulindo,Rukozo-Miyove,Mbuye-Miyove,Mukaka,Identified,Requested,1012800,Suspension,95.0,-1.62147,29.96712,0.0,Project Assessment - 2018.8.17,a1if1000002Vi7IAAS,006f100000d6kr4,Mukaka  Kibare  Mujebe      ,
Rwanda,Western Province,Rutsiro,Rusebeya,Kabona,Nyiramusenyi,Rejected,Technical,1011313,,0.0,-1.94245,29.470675,0.0,Project Assessment - 2018.12.12,a1if1000002qyRdAAI,006f100000cME5b,             ,
Rwanda,Northern Province,Gakenke,Buheta,Gatembe,Gatembe,Identified,,1007898,Suspended,48.0,-1.65575,29.8198,0.0,Project Assessment - 2018.12.12,a1if1000002qyRTAAY,006f100000c5Vbq,Buheta  Kanyanza         ,
Rwanda,Northern Province,Gakenke,Coko,Nyanza-Baramba,Baramba,Rejected,Technical,1007897,Suspended,103.0,-1.7526099999999998,29.812070000000002,0.0,Project Assessment - 2018.12.12,a1if1000002qyRYAAY,006f100000c5VQs,Baramba  Mucumazo  Gahunda  Mbogo   ,
Rwanda,Western Province,Karongi,Murundi,Kba-Kabaya,Ruhungamiyaga,Rejected,Technical,1014345,Suspended,0.0,-2.13099,29.57793,0.0,Project Assessment - 2018.11.18,a1if1000002gaUOAAY,006f100000eeuu4,Ruhungamiyaga  Mwumba         ,Ruhungamiyaga-Mwumba
Rwanda,Eastern Province,Ngoma,Rukira-Murama,Buliba-Kigabiro,Nyakondo,Rejected,Technical,1014355,Suspension,0.0,-2.20091,30.602359999999997,0.0,Project Assessment - 2018.11.18,a1if1000002gaifAAA,006f100000eeuvC,Buliba cell  Kigabiro cell         ,Rugaragara-Cyero
Rwanda,Eastern Province,Ngoma,Remera-Murama,Kunga-Nyakanazi,Rugazi,Rejected,Technical,1014352,Suspension,0.0,-2.068,30.57965,0.0,Project Assessment - 2018.11.18,a1if1000002gagtAAA,006f100000eeuus,Kinunga cell  Nyakanazi cell         ,Murambi-Rugazi
Rwanda,Eastern Province,Ngoma,Remera-Rurenge,Nyamagana-Musya,Kasherangabo,Rejected,Technical,1014351,Suspension,0.0,-2.1344,30.533790000000003,0.0,Project Assessment - 2018.11.18,a1if1000002gagZAAQ,006f100000eeuun,Nyamagana cell  Musya cell         ,Rebero-Runazi
Rwanda,Northern Province,Musanze,Nyange,Kabeza-Nda,Kansoro,Identified,Requested,1013477,Suspended,0.0,-1.446965,29.616203000000002,0.0,Project Assessment - 2018.9.16,a1if1000002YAH8AAO,006f100000d7Q60,Kansoro  Riboneye  Garuka  Nyabutaka   ,
Rwanda,Southern Province,Nyaruguru,Rusenge,Cyuna,Cyuna,Rejected,Technical,1007541,Suspension,30.0,-2.706995,29.59134667,0.0,Project Assessment - 2018.9.16,a1if1000002YAI6AAO,006f100000a86GH,Uwamuhizi  Agasharu  Cyuna  Gitara  Remera,
Rwanda,Northern Province,Musanze,Rwaza,Bumara,Kabuye,Rejected,Social,1013481,Suspension,0.0,-1.577664,29.654812,0.0,Project Assessment - 2018.9.16,a1if1000002YAHSAA4,006f100000d7Q6K,Kabuye            ,
Rwanda,Northern Province,Burera,Kinyababa,Rutovu,Gasumo,Rejected,Technical,1013501,Suspended,0.0,-1.33816,29.818620000000003,0.0,Project Assessment - 2018.9.16,a1if1000002YAJsAAO,006f100000d7QAG,Rubayu  Nyabizi 1  Gitenge  Ryatambu   ,
Rwanda,Southern Province,Nyaruguru,Nyabimata,Kabere,Uwurusugi,Rejected,Technical,1007574,Suspension,8.0,-2.7014400000000003,29.438440000000003,0.0,Project Assessment - 2018.9.28,a1if1000002Yv6xAAC,006f100000a86Go,Kabere  Ruhinga         ,
Rwanda,Southern Province,Nyaruguru,Cyahinda-Rusenge,Coko-Cyuna,Coko,Rejected,Technical,1007552,Suspension,30.0,2.7139450000000003,29.594534999999997,0.0,Project Assessment - 2018.9.16,a1if1000002YAILAA4,006f100000a86GS,Agasharu  Gitara  Uwamuhizi  Cyuna   ,Gitara-Uwamuhizi
Rwanda,Western Province,Nyamasheke,Kanjongo,Kagoya,Ruganzu,Rejected,Technical,1013716,Suspended,0.0,-2.319874,29.161228,0.0,Project Assessment - 2018.9.28,a1if1000002Yum9AAC,006f100000d7jEQ,Ruganzu  Museke  Kajumiro  Murambi   ,
Rwanda,Northern Province,Burera,Gahunga,Kidakama,Ku mashuri ya GSNDM Carmel Gahunga,Rejected,Technical,1013488,Suspension,0.0,-1.45014,29.67945,0.0,Project Assessment - 2018.9.16,a1if1000002YAIpAAO,006f100000d7Q9D,Mubuga  Rusenyi  Bahenga  Kabindi   ,
Rwanda,Northern Province,Burera,Kagogo,Kirda,Musangabo,Rejected,Technical,1007335,Other,6.0,-1.3822299999999998,29.77727,0.0,Project Assessment - 2018.9.16,a1if1000002YAIfAAO,006f100000a86Cx,Musangamo  Kiligali         ,
Rwanda,Northern Province,Burera,Kinyababa,Bugamba,Resume (kwa Frederick),Rejected,Technical,1013484,Suspension,0.0,-1.37445,29.808459999999997,0.0,Project Assessment - 2018.9.16,a1if1000002YAIQAA4,006f100000d7Q8j,Gatare  Gitoma  Kabingo  Kirwa   ,
Rwanda,Northern Province,Burera,Kinoni,Ntaruka,Kwa ntawitonderisi,Rejected,Technical,1013500,Suspension,0.0,-1.46061,29.740879999999997,0.0,Project Assessment - 2018.9.16,a1if1000002YAJnAAO,006f100000d7QAB,Kabaya  Nyarurembo         ,
Rwanda,Northern Province,Burera,Kinoni,Ntaruka,Nyarubuye,Rejected,Technical,1013497,Suspended,0.0,-1.46659,29.747159999999997,0.0,Project Assessment - 2018.9.16,a1if1000002YAJYAA4,006f100000d7Q9w,Nyarubuye  Shenyi  Kigina      ,
Rwanda,Northern Province,Musanze,Gacaca-Cyivugiza,Gakoro,Bunyereri,Rejected,Technical,1013470,Suspension,0.0,-1.477522,29.714723,0.0,Project Assessment - 2018.9.16,a1if1000002YAGZAA4,006f100000d7Q5R,"Murora  Cyiri  Nkomero  Cyivugiza  Cyanya, gasenyi",
Rwanda,Northern Province,Musanze,Nyange,Nda,Nyamiyaga,Rejected,Technical,1013473,Suspension,0.0,-1.43056,29.624836,0.0,Project Assessment - 2018.9.16,a1if1000002YAGoAAO,006f100000d7Q5g,Nyamiyaga  Kabare         ,
Rwanda,Northern Province,Musanze,Nyange,Kabeza,Nyiragahama,Identified,Requested,1013476,Suspended,0.0,-1.454949,29.616915999999996,0.0,Project Assessment - 2018.9.16,a1if1000002YAH3AAO,006f100000d7Q5v,"Gahama  Kibingo  Nyarubuye  Garuka  Mpiriza, kareba",
Rwanda,Southern Province,Nyaruguru,Munini-Kibeho,Ngarurira,Agatare,Under Construction,,1007563,Suspension,96.0,-2.69808,29.54557,0.0,Project Assessment - 2018.9.28,a1if1000002Yv6sAAC,006f100000a86Gd,Nyarushishi  Ngarurira         ,
Rwanda,Northern Province,Burera,Rugarama,Karangara,Ku mashuri ya karangara,Rejected,Technical,1013492,Suspension,0.0,-1.42212,29.70465,0.0,Project Assessment - 2018.9.16,a1if1000002YAJ9AAO,006f100000d7Q9X,Busura  Nyabihu  Gasiza  Karutwe   ,
Rwanda,Northern Province,Burera,Kinyababa,Rutovu,Shaga,Rejected,Technical,1013494,Suspension,0.0,-1.34705,29.82387,0.0,Project Assessment - 2018.9.16,a1if1000002YAJJAA4,006f100000d7Q9h,Shaga  Musaga  Kavumu      ,
Rwanda,Southern Province,Nyaruguru,Cyahinda-Muninin,Coko-Rubona,Rubona,Rejected,Technical,1013482,Suspended,0.0,-2.73310167,29.57745167,0.0,Project Assessment - 2018.9.16,a1if1000002YAHrAAO,006f100000d7Q8F,Coko  Rubona  Akagera  Ruseke  Gitara,
Rwanda,Northern Province,Musanze,Shingiro-Kinigi,Mugari,Rubira,Identified,Requested,1013479,Suspended,0.0,-1.475588,29.531146999999997,0.0,Project Assessment - 2018.9.16,a1if1000002YAHIAA4,006f100000d7Q6A,Kimanzi  Terimbere  Kabagabo  Kidendezi  Ngabageni,
Rwanda,Northern Province,Burera,Gahunga,Nyangwe-Gisizi,Gasagara,Identified,Requested,1013491,Suspension,0.0,-1.43466,29.6722,0.0,Project Assessment - 2018.9.16,a1if1000002YAJ4AAO,006f100000d7Q9S,Gasagara  Nyagasozi  Gikoro  Kabagabo  Gisizi,
Rwanda,Northern Province,Burera,Kinoni,Ntaruka,Kwa Twagira,Rejected,Social,1013490,Suspension,0.0,-1.4646700000000001,29.74894,0.0,Project Assessment - 2018.9.16,a1if1000002YAIzAAO,006f100000d7Q9N,Shenyi  Kigina  Nyarubuye      ,
Rwanda,Northern Province,Burera,Kinoni,Nkenke,Nyagatoki,Rejected,Technical,1013489,Suspended,0.0,-1.43466,29.6722,0.0,Project Assessment - 2018.9.16,a1if1000002YAIuAAO,006f100000d7Q9I,Nyagatoki  Buhoro         ,
Rwanda,Southern Province,Nyaruguru,Cyahinda,Coko-Cyahd,Rutega,Rejected,Technical,1013483,Suspension,0.0,-2.735675,29.59105333,0.0,Project Assessment - 2018.9.16,a1if1000002YAHwAAO,006f100000d7Q8K,Rutega  Coko  Gitara  Ruseke  Rubona,Coko-Rutega
Rwanda,Southern Province,Nyaruguru,Cyahinda,Coko,Gitara,Rejected,Technical,1007554,Suspension,30.0,-2.721561,29.596655,0.0,Project Assessment - 2018.9.16,a1if1000002YAIBAA4,006f100000a86GU,Gitara  Ryamarembo  Ruko  Coko  Uwamuhizi,
Rwanda,Southern Province,Nyaruguru,Rusenge,Cyuna,Remera,Rejected,Technical,1007551,Suspension,30.0,-2.70332833,29.58839667,0.0,Project Assessment - 2018.9.16,a1if1000002YAI1AAO,006f100000a86GR,Remera  Agasharu  Cyuna  Uwamuhizi   ,
Rwanda,Northern Province,Burera,Cyanika,Kabyiro,Mugeshi,Rejected,Technical,1013493,Suspension,0.0,-1.38299,29.71278,0.0,Project Assessment - 2018.9.16,a1if1000002YAJEAA4,006f100000d7Q9c,Mugeshi  Gahama  Mugarama      ,
Rwanda,Western Province,Nyamasheke,Macuba-Kanjongo,Vugangoma,Gitindo,Rejected,Technical,1013715,Suspension,0.0,-2.335284,29.184096000000004,0.0,Project Assessment - 2018.9.28,a1if1000002Yum4AAC,006f100000d7jEL,Kigandi  Wisovu  Mugeyo      ,
Rwanda,Western Province,Karongi,Gitesi,Nyamirga,Karambi,Identified,Requested,1013718,Suspended,55.0,-2.15214,29.41315,0.0,Project Assessment - 2018.9.28,a1if1000002YumJAAS,006f100000d7jEa,Gisasa  Burega  Rukore  Nzabuhara  Rwintare village,Gisasa-Burega
Rwanda,Western Province,Karongi,Gitesi-Rubengera,Gitega-Bubazi,Senga,Rejected,Technical,1013714,Suspension,0.0,-2.0824,29.4245,0.0,Project Assessment - 2018.9.28,a1if1000002YulzAAC,006f100000d7jEG,Senga  Kigarama  Bugobera  Kamihaho  Muvungu,Senga-Kigarama
Rwanda,Northern Province,Burera,Kivuye,Bukwashuli,Rugezi,Rejected,Technical,1007336,Suspension,460.0,-1.48563,29.888709999999996,0.0,Project Assessment - 2018.9.28,a1if1000002YuluAAC,006f100000a86Cy,Gitovu  Kabaya  Rugezi      ,
Rwanda,Western Province,Nyamasheke,Mahembe,Gisoke,Nonwe,Identified,Requested,1013717,Suspended,0.0,-2.224749,29.291024,0.0,Project Assessment - 2018.9.28,a1if1000002YumEAAS,006f100000d7jEV,Kanyoni  Muramba  Fumba  Kivumu  Giko,
Rwanda,Southern Province,Nyaruguru,Nyabimata,Ruhga,Ruhinga,Rejected,Technical,1007594,,17.0,-2.69618,29.42616,0.0,Project Assessment - 2018.9.28,a1if1000002Yv6YAAS,006f100000a86H8,             ,
Rwanda,Eastern Province,Kayonza,Rwinkwavu,Mbarara,Mutembo,Rejected,Technical,1007396,Suspended,10.0,-1.9678400000000003,30.58284,0.0,Project Assessment - 2018.9.28,a1if1000002YulfAAC,006f100000a86Dw,Mutembo  Gahushyi  Mbarara 2      ,
Rwanda,Southern Province,Nyaruguru,Nyabimata,Mishungero,Muyira,Rejected,Technical,1007595,,8.0,-2.7221,29.439159999999998,0.0,Project Assessment - 2018.9.28,a1if1000002Yv6dAAC,006f100000a86H9,             ,
Rwanda,Western Province,Nyabihu,Rambura,Rugamba-Kibisabo,Kamiro,Identified,Identified in Needs Assessment,1007444,Suspended,56.0,-1.681,29.50024,0.0,Project Assessment - 2018.8.17,a1if1000002Vi6tAAC,006f100000a86Ei,Kamiro  Bugonde  Rwenza  Kamifuho   ,
Rwanda,Southern Province,Nyaruguru,Nyabimata,Ruhga,Cyumuzi,Rejected,Technical,1007591,,8.0,-2.69811,29.426029999999997,0.0,Project Assessment - 2018.9.28,a1if1000002Yv77AAC,006f100000a86H5,             ,
Rwanda,Northern Province,Gakenke,Rongi-Mataba,Kabuga-Muhororo,Kabuga,Rejected,,1007404,Suspension,160.0,-1.750277,29.745,0.0,Project Assessment - 2018.8.17,a1if1000002Vi8QAAS,006f100000a86E4,Muhororo  Muyaga  Gashyushya      ,
Rwanda,Southern Province,Nyamagabe,Buruhukiro,Buhoro,Buhoro,Rejected,Technical,1012801,Suspension,0.0,-2.4418,29.44929833,0.0,Project Assessment - 2018.8.17,a1if1000002Vi7SAAS,006f100000d6kr9,Buhoro  Giharayumbu  Gakangaga  Gihumo   ,
Rwanda,Western Province,Nyabihu,Rambura-Rurembo,Cyugi-Kabutozi,Gatovu,Rejected,Technical,1007441,Suspended,14.0,-1.6911943999999999,29.5574167,0.0,Project Assessment - 2018.8.17,a1if1000002Vi7NAAS,006f100000a86Ef,Cyugi  Kabutozi  Musenyi  Rwanika  Mugote,
Rwanda,Southern Province,Nyamagabe,Buruhukiro,Rambya,Nkamba,Rejected,Technical,1012805,Suspended,0.0,-2.42504833,29.42907333,0.0,Project Assessment - 2018.8.17,a1if1000002Vi7rAAC,006f100000d6krY,Nkamba  Nganzo  Buruhukiro      ,
Rwanda,Northern Province,Gicumbi,Rushaki-Mukarange,Kamutore-Rugarama,Kamutore Barrage,Rejected,Technical,1009711,Suspension,35.0,-1.47875,30.10468,0.0,Project Assessment - 2018.8.17,a1if1000002Vi7hAAC,006f100000bMK0j,Kamutora  Rugarama  Nyakabungo      ,Cyamunganga
Rwanda,Northern Province,Gakenke,Rusasa,Rurembo-Mazga,Kabuyenge,Rejected,Local Investment,1012804,Suspension,0.0,-1.6225,29.66777,0.0,Project Assessment - 2018.8.17,a1if1000002Vi7mAAC,006f100000d6krT,Mazinga  Nyagahama         ,
Rwanda,Southern Province,Nyamagabe,Buruhukiro,Bushigishigi,Mujerenge,Identified,Identified in Needs Assessment,1007463,Suspended,70.0,-2.45195667,29.427665,0.0,Project Assessment - 2018.8.17,a1if1000002Vi86AAC,006f100000a86F1,Mujerenge  Minaga  Gikungu      ,
Rwanda,Southern Province,Nyaruguru,Nyabimata,Ruhga,Mutobwe,Rejected,Technical,1007566,Suspended,10.0,-2.69631,29.434359999999998,0.0,Project Assessment - 2018.9.28,a1if1000002Yv72AAC,006f100000a86Gg,Mutobwe  Cyumuzi         ,
Rwanda,Southern Province,Nyaruguru,Nyabimata-Muganza,Gihemvu,Mutovu,Rejected,Technical,1007561,,48.0,-2.6860833,29.478083299999998,0.0,Project Assessment - 2018.9.28,a1if1000002Yv7RAAS,006f100000a86Gb,             ,
Rwanda,Southern Province,Nyamagabe,Buruhukiro,Byimana,Gakangaga,Rejected,Technical,1012802,Suspended,0.0,-2.43705833,29.44304667,0.0,Project Assessment - 2018.8.17,a1if1000002Vi7XAAS,006f100000d6krE,Gakangaga  Giharayumbu         ,
Rwanda,Southern Province,Nyaruguru,Nyabimata,Nyabimata,Murambi,Identified,Identified in Needs Assessment,1007557,Suspended,10.0,-2.68572,29.47124,0.0,Project Assessment - 2018.9.28,a1if1000002Yv7WAAS,006f100000a86GX,Murambi  Mutovu  Bihembe  Rugarama  Kabere,
Rwanda,Western Province,Rutsiro,Rusebeya,Kabona,Nyamakanda,Rejected,Technical,1011304,,0.0,-1.948219,29.479638,0.0,Project Assessment - 2018.12.12,a1if1000002qyROAAY,006f100000cME4n,             ,
Rwanda,Western Province,Nyabihu,Mukamira,Jaba-Cyamabuye,Mukamira,Identified,Identified in Needs Assessment,1007439,Suspended,35.0,-1.6198,29.502440000000004,0.0,Project Assessment - 2018.8.17,a1if1000002Vi78AAC,006f100000a86Ed,Kinyanja  Rwanyirangeri  Gisenyi      ,
Rwanda,Western Province,Nyabihu,Shyira-Rurembo,Muta-Gitega,Nyirantarengwa,Rejected,Technical,1012799,Suspended,0.0,-1.6798400000000002,29.51707,0.0,Project Assessment - 2018.8.17,a1if1000002Vi7DAAS,006f100000d6kqz,Cyuve  Rurambo  Cyanika  Ntende  Ruhombo,
Rwanda,Southern Province,Nyaruguru,Nyabimata,Ruhga,Gasugi,Identified,Identified in Needs Assessment,1007570,Suspended,10.0,-2.6974299999999998,29.433390000000003,0.0,Project Assessment - 2018.9.28,a1if1000002Yv7CAAS,006f100000a86Gk,Gasugi  Cyumuzi  Ruhinga  Ndaro  Mutobwe-Tangabo,
Rwanda,Southern Province,Nyaruguru,Nyabimata,Nyabimata-Kabere,Kabere,Complete,In Service,1007539,,63.0,-2.6979439999999997,29.446917,0.0,Project Assessment - 2018.9.28,a1if1000002Yv7HAAS,006f100000a86GF,Kabere  Bwerere  Mutobwe  Nyabimata  Gituntu-Tangabo,
Rwanda,Eastern Province,Ngoma,Rukira,,Masoko,Rejected,Technical,1014358,Suspension,0.0,-2.1274599999999997,30.645709999999998,0.0,Project Assessment - 2018.11.18,a1if1000002gaonAAA,006f100000eeuvl,Gituku            ,Gituku
Rwanda,Eastern Province,Ngoma,Rukira,Nyya,MuKirombe,Rejected,Technical,1014361,Suspension,0.0,-2.18396,30.62258,0.0,Project Assessment - 2018.11.18,a1if1000002gapvAAA,006f100000eeuw0,Nyinya            ,Karuruma-Rwamukobwa
Rwanda,Eastern Province,Ngoma,Rukira-Mushikiri,Buliba-Cyamigurwa,Cyunuzi,Rejected,Technical,1014354,Suspension,0.0,-2.2017900000000004,30.604159999999997,0.0,Project Assessment - 2018.11.18,a1if1000002gaiVAAQ,006f100000eeuv7,Buliba  Cyamigurwa cell         ,Rugaragara-Knge
Rwanda,Eastern Province,Ngoma,Rukira,Kibatsi-Nyaruvumu,Nyamabuye,Rejected,Technical,1014359,Suspension,0.0,-2.1293900000000003,30.61855,0.0,Project Assessment - 2018.11.18,a1if1000002gap7AAA,006f100000eeuvq,Kibatsi cell  Nyaruvumu         ,Nyamabuye-Nyamahehe
Rwanda,Eastern Province,Ngoma,Remera-Munyaga,Ndekwe-Kaduha,Gitinga,Rejected,Technical,1014349,Suspension,0.0,-2.0566,30.47997,0.0,Project Assessment - 2018.11.18,a1if1000002gaduAAA,006f100000eeuud,Ndekwe cell  Kaduha cell         ,Icyakabiri-Gishike
Rwanda,Eastern Province,Ngoma,Rukira-Mushikiri,Nyya-Bisagara,Ruhama,Rejected,Technical,1014360,Suspension,0.0,-2.18396,30.62926,0.0,Project Assessment - 2018.11.18,a1if1000002gapMAAQ,006f100000eeuvv,Nyinya cell  Bisagara cell         ,Ruhama-Bgaro
Rwanda,Eastern Province,Ngoma,Rukira,Kibatsi-Nyya,Bweranka,Rejected,Technical,1014356,Suspension,0.0,-2.15593,30.631629999999998,0.0,Project Assessment - 2018.11.18,a1if1000002gaoJAAQ,006f100000eeuvb,Kibatsi cell  Nyinya cell         ,Bweranka-Mirambi
Rwanda,Western Province,Karongi,Murundi-Nyange,Kama-Gaseke,Kinyinya,Rejected,Technical,1014347,Suspension,0.0,-2.07245,29.60469,0.0,Project Assessment - 2018.11.18,a1if1000002gaXcAAI,006f100000eeuuO,Mwunguzi  Ngobagoba  Nzobe  Kiraro  Giko,Mwunguzi-Ngobagoba
Rwanda,Eastern Province,Ngoma,Rerenge-Remera,Rujambara-Ndekwe,Ngoma 22,Rejected,Technical,1014350,Suspension,0.0,-2.08722,30.50135,0.0,Project Assessment - 2018.11.18,a1if1000002gagFAAQ,006f100000eeuui,Rujambara cell  Ndekwe cell         ,Urusagara-Gikomero
Rwanda,Eastern Province,Ngoma,Kibungo-Kabare,Gitara-Gatonde,Kagumiro,Rejected,Technical,1014380,Suspension,0.0,-2.107592,30.609893,0.0,Project Assessment - 2018.11.18,a1if1000002gbH1AAI,006f100000eeuyf,Gitara  Gatonde         ,Kagumiro-Nyagatovu
Rwanda,Eastern Province,Ngoma,Kibungo,Gatonde-Gahima,Rwamihuro,Rejected,Technical,1014378,Suspension,0.0,-2.103568,30.57552,0.0,Project Assessment - 2018.11.18,a1if1000002gbCkAAI,006f100000eeuyG,Gahima  Gatonde         ,Misange-Rwamihuro-Rutovu
Rwanda,Western Province,Karongi,Murambi,Muhororo-Nzaratsi,Rusovu,Identified,Identified in Needs Assessment,1007387,Suspension,45.0,-2.14783,29.535028000000004,0.0,Project Assessment - 2018.11.18,a1if1000002gavjAAA,006f100000a86Dn,Muhororo  Nzaratsa         ,Birambo-Rusovu
Rwanda,Eastern Province,Ngoma,Rerenge-Karembo,Rwikubo-Murambi-Nyamirambo,Gatembo,Rejected,Technical,1014369,Suspension,0.0,-2.11637,30.46358,0.0,Project Assessment - 2018.11.18,a1if1000002gatJAAQ,006f100000eeuwe,Rwikubo cell  Nyamirambo cell         ,Akabaka
Rwanda,Western Province,Karongi,Murambi,Shyembe-Mubuga,Nyamugari,Identified,Requested,1014375,Suspension,0.0,-2.155625,29.5944,0.0,Project Assessment - 2018.11.18,a1if1000002gbBwAAI,006f100000eeuy1,Shyembe cell  Mubuga cell         ,Nyamugari-Nyabwoma
Rwanda,Eastern Province,Ngoma,Rerenge-Karembo,Rwikubo-Nyamirambo,Kagongoyi,Rejected,Technical,1014368,Suspension,0.0,-2.11144,30.46133,0.0,Project Assessment - 2018.11.18,a1if1000002gat9AAA,006f100000eeuwZ,Rwikubo cell  Nyamirambo cell         ,Akabaka-Kivugangoma
Rwanda,Eastern Province,Ngoma,Rurenge-Gashanda,Akagarama-Mutsdo,Mukibimba,Rejected,Technical,1014366,Suspension,0.0,-2.14135,30.497059999999998,0.0,Project Assessment - 2018.11.18,a1if1000002gaskAAA,006f100000eeuwP,Akagarama  Mutsindo cell         ,Mukibimba-Rwakavuna
Rwanda,Eastern Province,Ngoma,Rurenge-Gashanda,Akagarama-Mutsdo,Karuberwa,Rejected,Technical,1014362,Suspension,0.0,-2.14193,30.503829999999997,0.0,Project Assessment - 2018.11.18,a1if1000002gaq5AAA,006f100000eeuw5,Akagarama cell  Mutsindo cell         ,Ryanyamuhda-Gisenyi
Rwanda,Western Province,Karongi,Rwankuba,Rubazo,Kanyarusanga 1,Identified,Identified in Needs Assessment,1007391,Suspended,72.0,-2.15350833,29.356425,0.0,Project Assessment - 2018.11.18,a1if1000002gb6cAAA,006f100000a86Dr,Rubazo  Gasata         ,Kanyarusanga-Nyagafumba
Rwanda,Eastern Province,Ngoma,Remera,Ndekwe,Gikomero,Rejected,Technical,1014370,Suspension,0.0,-2.085,30.500459999999997,0.0,Project Assessment - 2018.11.18,a1if1000002gatTAAQ,006f100000eeuwj,Ndekwe cell            ,Gikomero-Rugo
Rwanda,Eastern Province,Ngoma,Zaza,Ruhga-Ruhembe,Busasamana,Rejected,Technical,1014363,Suspension,0.0,-2.18739,30.410090000000004,0.0,Project Assessment - 2018.11.18,a1if1000002gaqFAAQ,006f100000eeuwA,Ruhinga cell  Ruhembe cell         ,Busasamana-Makoma
Rwanda,Western Province,Karongi,Murundi-Kinihira,Kabaya-Bweramvura,Burwi,Identified,Requested,1014374,Suspended,0.0,-2.136568,29.5995,0.0,Project Assessment - 2018.11.18,a1if1000002gbBcAAI,006f100000eeuxr,Bweramvura  Kabaya cell         ,Burwi-Nyagisenyi
Rwanda,Eastern Province,Ngoma,Rurenge-Remera,Rugese-Ndekwe,Kwa Gapfizi,Rejected,Technical,1014371,Suspension,0.0,-2.0743099999999997,30.486490000000003,0.0,Project Assessment - 2018.11.18,a1if1000002gatiAAA,006f100000eeuwo,Rugese cell  Ndekwe cell         ,Kumuni-Ruhuha
Rwanda,Western Province,Karongi,Murambi,Mubuga-Nyarunyya,Cyamatare,Identified,Requested,1014376,Suspended,0.0,-2.162912,29.574571999999996,0.0,Project Assessment - 2018.11.18,a1if1000002gbCBAAY,006f100000eeuy6,Mubuga  Nyarunyinya         ,Cyamat-Karambo
Rwanda,Western Province,Karongi,Gashari,Birambo,Nyirahene,Rejected,Technical,1007388,Suspended,9.0,-2.14375,29.518138899999997,0.0,Project Assessment - 2018.11.18,a1if1000002gatsAAA,006f100000a86Do,             ,Birambo-Age
Rwanda,Eastern Province,Ngoma,Rukira,Nyaruvumu-Buliba,Rubirizi,Rejected,Technical,1014364,Suspension,0.0,-2.17331,30.579559999999997,0.0,Project Assessment - 2018.11.18,a1if1000002gaqUAAQ,006f100000eeuwF,Nyaruvumu cell  Buliba cell         ,Nyagataba
Rwanda,Western Province,Karongi,Rwankuba,Rubazo-Gasata,Kanyarusanga,Rejected,Technical,1014373,Suspension,0.0,-2.15347,29.35955,0.0,Project Assessment - 2018.11.18,a1if1000002gb8TAAQ,006f100000eeuxm,Rubazo cell  Gasata cell         ,Kanyarusanga-Nyamifumba-Muhgo
Rwanda,Eastern Province,Ngoma,Kibungo-Murama,Gatonde-Nyakanazi,Misange,Rejected,Technical,1014379,Suspension,0.0,-2.0921133000000003,30.585332,0.0,Project Assessment - 2018.11.18,a1if1000002gbDEAAY,006f100000eeuyL,Gatonde  Nyakanazi         ,Misange-Nyakanazi
Rwanda,Eastern Province,Ngoma,Zaza,Ruhga-Nyagatugunda,Nyagahandagaza,Rejected,Technical,1014367,Suspension,0.0,-2.1755,30.40085,0.0,Project Assessment - 2018.11.18,a1if1000002gasuAAA,006f100000eeuwU,Nyagatugunda cell  Ruhinga         ,Nyagahagaza-Cyerwa
Rwanda,Eastern Province,Ngoma,Rukira,Kibatsi-Nyaruvumu,Rwarudogodo,Rejected,Technical,1014365,Suspension,0.0,-2.14107,30.59631,0.0,Project Assessment - 2018.11.18,a1if1000002gasaAAA,006f100000eeuwK,Kibatsi cell  Nyaruvumu cell         ,Kagarama
Rwanda,Eastern Province,Ngoma,Kibungo,Gatonde-Gahima,Rutovu,Rejected,Technical,1014377,Suspension,0.0,-2.095675,30.576452000000003,0.0,Project Assessment - 2018.11.18,a1if1000002gbCVAAY,006f100000eeuyB,Gatonde cell  Nyakanazi  Gahima      ,Misange-Rutovu
Rwanda,Western Province,Karongi,Murundi,Nzaratsi-Bukiro,Gatare,Rejected,Technical,1014346,Suspension,0.0,-2.1076099999999998,29.56258,0.0,Project Assessment - 2018.11.18,a1if1000002gaUsAAI,006f100000eeuu9,Gishyikiro  Gitwa  Remera  Nyamyumba  Kabingo,Gishyikiro-Gitwa
Rwanda,Eastern Province,Ngoma,Rukira,,Rusenyi,Rejected,Technical,1014357,Suspension,0.0,-2.1287700000000003,30.645229999999998,0.0,Project Assessment - 2018.11.18,a1if1000002gaoYAAQ,006f100000eeuvg,Gituku            ,Gituku
Rwanda,Eastern Province,Ngoma,Rukira,Buliba,Rugaragara,Rejected,Technical,1014353,Suspension,0.0,-2.19132,30.601909999999997,0.0,Project Assessment - 2018.11.18,a1if1000002gaiGAAQ,006f100000eeuv2,Buliba            ,Kabeza-Rugaragara
Rwanda,Eastern Province,Ngoma,Rerenge,Rujambara-Rwikubo,Kwa Gahakwa,Rejected,Technical,1014348,Suspension,0.0,-2.10605,30.497609999999998,0.0,Project Assessment - 2018.11.18,a1if1000002gaaMAAQ,006f100000eeuuT,Rujambara cell  Rwikubo cell         ,Urusagara-Ruhuha
Rwanda,Eastern Province,Ngoma,Kibungo-Murama,Mahango-Cyasemakamba,Kabimba,Rejected,Technical,1014381,Suspension,0.0,-2.1655450000000003,30.549758,0.0,Project Assessment - 2018.11.18,a1if1000002gbKAAAY,006f100000eeuyk,Mahango  Mvumba  Cyasemakamba      ,Kabimba-Mmbo
Rwanda,Western Province,Rubavu,Nyundo,Kigarama-Musabike,Kazabe,Complete,In Service,1009068,,46.0,-1.723639,29.366194,4100.0,Project Assessment - 2017.9.30,a1if1000002JcXQAA0,006f100000aSNCT,Kazabe  Kagano  Nyakibande  Kaje   ,
Rwanda,Western Province,Rubavu,Rugerero,,Nyarurembo,Identified,,1009066,,0.0,,,0.0,Project Assessment - 2017.9.29,a1if1000002JcXLAA0,006f100000aSNCR,             ,
Rwanda,Southern Province,Gisagara,Kibirizi-Kansi,Ruturo-Nyange,Kabogoti,Rejected,Technical,1013727,Suspension,0.0,-2.64711,29.809759999999997,0.0,Project Assessment - 2018.9.28,a1if1000002Yv7vAAC,006f100000d7jHP,Kabogoti  Mpinga  Karengera  Kigarama (on the RHS )   ,
Rwanda,Southern Province,Gisagara,Kibirizi-Ngoma,Duwani-But,Kivumu,Rejected,Technical,1013725,Suspension,0.0,-2.5914900000000003,29.75931,0.0,Project Assessment - 2018.9.28,a1if1000002Yv7lAAC,006f100000d7jHF,Kavumu 1  Kavumu 2  Mubuga  Cyahafi  Bitabire,
Rwanda,Northern Province,Rulindo,Ntarabana,Mahwaza-Kivugiza,Karengo,Identified,,1008002,Suspension,48.0,-1.78583333,30.0825,0.0,Project Assessment - 2017.8.16,a1if1000002NpUaAAK,006f100000aATjC,             ,
Rwanda,Western Province,Rubavu,Terimbere,,Nombe,Rejected,Technical,1009071,,0.0,-1.7056,29.309820000000002,0.0,Project Assessment - 2017.9.29,a1if1000002JcXfAAK,006f100000aSNCW,             ,
Rwanda,Western Province,Rubavu,Nyundo,,Ndindiye,Rejected,Social,1009069,,0.0,,,0.0,Project Assessment - 2017.9.29,a1if1000002JcXVAA0,006f100000aSNCU,             ,
Rwanda,Southern Province,Gisagara,Kibirizi-Save,Duwani-Rwanza,Gaseke,Rejected,Technical,1013726,Suspension,0.0,-2.59415,29.778290000000002,0.0,Project Assessment - 2018.9.28,a1if1000002Yv7qAAC,006f100000d7jHK,Buhoro  Murambi  Burashi  Rwuya  Cyahafi,
Rwanda,Southern Province,Nyaruguru,Nyabimata,Nyabimata-Samiyonge,Samiyonge,Rejected,Technical,1007545,Suspended,10.0,-2.67962,29.46244,0.0,Project Assessment - 2018.9.28,a1if1000002Yv7bAAC,006f100000a86GL,Murambi  Tangabo  Mazimeru  Bigugu  Nyabimata,
Rwanda,Southern Province,Nyanza,Rwabicuma,Nyarusange,Karambi,Rejected,Technical,1012833,Suspension,0.0,-2.34876,29.68835,0.0,Project Assessment - 2018.8.18,a1if1000002Vj9PAAS,006f100000d6mYQ,Karambi  Gakoni  Kamuvunyi A  Kamuvunyi B   ,
Rwanda,Southern Province,Gisagara,Mugombwa-Kansi,Baziro-Umuni,Nyabinyenga,Rejected,Technical,1013811,Suspension,0.0,-2.70198,29.812890000000003,0.0,Project Assessment - 2018.10.8,a1if1000002mDF0AAM,006f100000d7x5o,Nyabinyenga  Nyamirama  Nyagatovu - Nyagahuru  Gatare - Nyamure  Rwimbogo - Ruburanjwiri,
Rwanda,Southern Province,Gisagara,Nyanza,Umubanga,Akagano,Rejected,Technical,1013809,Suspension,0.0,-2.78075,29.74108,0.0,Project Assessment - 2018.10.8,a1if1000002mDEqAAM,006f100000d7x5e,Akinyana  Karwishyura  Manyoni  Kabakene   ,
Rwanda,Southern Province,Gisagara,Nyanza-Ngoma,Nyamugari-Nyamirama,Gatarinzira,Identified,Requested,1013805,Suspended,0.0,-2.7759,29.70875,0.0,Project Assessment - 2018.10.8,a1if1000002mDERAA2,006f100000d7x5F,Gatarinzira  Kigali - Rama  Cyumba - Urutoyi - Agahehe  Bihembe  Nteko,
Rwanda,Southern Province,Gisagara,Kigembe-Kansi,Rusagara-Akaboti,Gasharu,Rejected,Technical,1013813,Suspended,0.0,-2.7045,29.75324,0.0,Project Assessment - 2018.10.8,a1if1000002mDFAAA2,006f100000d7x5y,Gasharu  Akatera - Kigarama  Nyarukurazo - Nyarunyinya  Gasharu - Gatare  Gatare (Kansi),
Rwanda,Southern Province,Gisagara,Kigembe,Rusagara-Gatovu,Nyarunyinya,Rejected,Technical,1013810,Suspension,0.0,-2.7234,29.76373,0.0,Project Assessment - 2018.10.8,a1if1000002mDEvAAM,006f100000d7x5j,Nyarunyinya  Nyarukurazo  Gasharu  Gatare   ,
Rwanda,Southern Province,Gisagara,Kigembe,Rusagara-Gatovu,Nyarukurazo,Rejected,Technical,1013804,Suspended,0.0,-2.7242,29.754109999999997,0.0,Project Assessment - 2018.10.8,a1if1000002mDEMAA2,006f100000d7x5A,Nyarukurazo  Nyarunyinya  Akatera  Gasharu  Gatare,
Rwanda,Southern Province,Nyaruguru,Kigembe-Ngeri,Rusagara-Ngeri,Akatera,Rejected,Technical,1007583,Suspension,18.0,-2.71667,29.738640000000004,0.0,Project Assessment - 2018.10.8,a1if1000002mDEbAAM,006f100000a86Gx,Akatera  Kigarama  Nyarukurazo - Nyarunyinya  Gasharu - Gatare (Gatovu Cell )  Gisozi - Kinteko,
Rwanda,Southern Province,Gisagara,Kigembe-Kansi,Impga-Akaboti,Akadogo,Rejected,Technical,1013812,Suspension,0.0,-2.70192,29.762179999999997,0.0,Project Assessment - 2018.10.8,a1if1000002mDF5AAM,006f100000d7x5t,Akadogo  Akakijugujugu  Nyarunyinya  Gatare (Gatovu Cell )  Gatare (Akabogoti Cell),
Rwanda,Southern Province,Nyaruguru,Munini-Kibeho,Ngaruriye,Ngarurira,Rejected,Technical,1007559,Suspended,15.0,-2.6965833,29.540111100000004,0.0,Project Assessment - 2018.9.28,a1if1000002Yv7gAAC,006f100000a86GZ,Nyarushishi  Ngarurira         ,
Rwanda,Northern Province,Gicumbi,Bwisige,Nyabushgitwa,Nyagatoma,Rejected,Social,1010574,,0.0,-1.564607,30.107231,0.0,Project Assessment - 2018.2.2,a1if1000002LPZXAA4,006f100000biK9r,Nyabushingitwa  Mukono         ,
Rwanda,Northern Province,Gicumbi,Bwisige,Nyarwa,Kiruruma,Rejected,Technical,1010581,,35.0,-1.58735,30.142159999999997,0.0,Project Assessment - 2018.2.2,a1if1000002LPa6AAG,006f100000biKAk,Nyarwina village  Bwuhira village  Cyeya village  Burambo village   ,
Rwanda,Northern Province,Gicumbi,Bwisige,Nyabushgitwa,Ryakirayi,Rejected,Social,1010575,,0.0,-1.565258,30.110382,0.0,Project Assessment - 2018.2.2,a1if1000002LPZcAAO,006f100000biK9w,Nyagatoma            ,
Rwanda,Kigali,Nyarugenge,Kanyinya,Nzove-Kamenge,Kamenge,Identified,Requested,1021789,Suspension,0.0,-1.947858,30.00694444,100.0,Project Assessment - 2019.11.14,a1i3Z0000043wGfQAI,0063Z00000huHAM,Kamenge            ,
Rwanda,Southern Province,Nyanza,Nyagisozi-Rwabicuma,Kabirizi-Runga,Cyahafi,Rejected,Technical,1012834,Suspension,0.0,-2.37584,29.680329999999998,0.0,Project Assessment - 2018.8.18,a1if1000002Vj9UAAS,006f100000d6mYV,Cyahafi  Rugarama  Nyagatovu  Gashyenzi   ,
Rwanda,Southern Province,Gisagara,Nyanza-Ngoma,Nyamugari-Nyamirama,Sare,Identified,Requested,1013806,Suspended,0.0,-2.79714,29.69812,0.0,Project Assessment - 2018.10.8,a1if1000002mDEWAA2,006f100000d7x5K,Sare  Rugogwe - Akayange  Rwamiko  Bihembe  Kanyamaganda - Nteko,
Rwanda,Southern Province,Gisagara,Mukindo,Nyabisagara-Gitega,Rususa,Rejected,Technical,1013807,Suspended,0.0,-2.7410200000000002,29.856240000000003,0.0,Project Assessment - 2018.10.8,a1if1000002mDEgAAM,006f100000d7x5P,Rususa  Gatare - Butare  Nturubuye  Nyabikoni  Akabati - Agatunda,
Rwanda,Southern Province,Gisagara,Nyanza,Umubanga,Maheresho,Rejected,Technical,1013808,Suspension,0.0,-2.77338,29.755029999999998,0.0,Project Assessment - 2018.10.8,a1if1000002mDElAAM,006f100000d7x5Z,Maheresho  Akinyana  Urukeri  Remera  Akamabuye,
Rwanda,Northern Province,Gicumbi,Bwisige,Nyabushgitwa,Mugiziza,Rejected,Social,1010576,,0.0,-1.554772,30.129921999999997,0.0,Project Assessment - 2018.2.2,a1if1000002LPZhAAO,006f100000biKA1,Warufu  Murehe         ,
Rwanda,Northern Province,Gicumbi,Nyamiyaga,Gahumuriza,Kwangaruye,Rejected,Technical,1010578,,35.0,-1.6753630000000002,30.097711999999998,0.0,Project Assessment - 2018.2.2,a1if1000002LPZrAAO,006f100000biKAL,Maya  Rusumo         ,
Rwanda,Northern Province,Gicumbi,Bwisge,Bwisige,Kavuruga,Rejected,Technical,1010580,,0.0,-1.5751879999999998,30.144215000000003,0.0,Project Assessment - 2018.2.2,a1if1000002LPa1AAG,006f100000biKAf,Kavuruga  Nyarwina  Rukomo  Ruvune  Rwarurema,
Rwanda,Northern Province,Gicumbi,Nyamiyaga,Gahumuriza,Kivugiza (nyange),Rejected,,1010579,,40.0,-1.66842,30.100122,0.0,Project Assessment - 2018.2.2,a1if1000002LPZwAAO,006f100000biKAa,Kabuga  Maya         ,
Rwanda,Northern Province,Gicumbi,Bwisige,Nyabushgitwa-Gahondo,Gahondo,Rejected,Technical,1010577,,0.0,-1.539721,30.127623999999997,0.0,Project Assessment - 2018.2.2,a1if1000002LPZmAAO,006f100000biKAB,Gahondo  Cyamukanya         ,
Rwanda,Northern Province,Gicumbi,Bwisige,Rwarurema,Rwarurema,Rejected,Technical,1010573,,0.0,-1.59687,30.150190000000002,0.0,Project Assessment - 2018.2.2,a1if1000002LPZSAA4,006f100000biK9K,Rwarurema village  Sunzu village  Rugerero      ,
Rwanda,Northern Province,Gicumbi,Nyamiyaga-Kageyo,Gahumuriza-Horezo,Ruhango,Rejected,Social,1010583,,0.0,-1.6589099999999999,30.114194,0.0,Project Assessment - 2018.2.2,a1if1000002LPaGAAW,006f100000biKAu,Ruhango  Rutare  Horezo      ,
Rwanda,Northern Province,Gicumbi,Bwisige,Kavuruga,Ryakwata,Rejected,Technical,1010572,,40.0,-1.57746,30.136540000000004,0.0,Project Assessment - 2018.2.2,a1if1000002LPZNAA4,006f100000biK9A,Kavuruga  Rukomo         ,
Rwanda,Southern Province,Gisagara,Save-Musha,Zivu-Kigarama,Nyakagezi,Rejected,Technical,1013731,Suspension,0.0,-2.55904,29.83055,0.0,Project Assessment - 2018.9.28,a1if1000002Yv8FAAS,006f100000d7jID,Ryarubayi  Ryamurongo  Rugogwe  Kigarama - Rugara   ,
Rwanda,Southern Province,Gisagara,Musha,Gatovu,Runigiro,Rejected,Technical,1013733,Suspension,0.0,-2.51012,29.86378,0.0,Project Assessment - 2018.9.28,a1if1000002Yv8PAAS,006f100000d7jIN,Nyagasambu  Cyayi  Gitega      ,
Rwanda,Southern Province,Gisagara,Musha-Gikonko,Gatovu-Gikonko,Kabasore,Rejected,Technical,1013734,Suspension,0.0,-2.4919,29.858040000000003,0.0,Project Assessment - 2018.9.28,a1if1000002Yv8UAAS,006f100000d7jIS,Gitega  Gahabwa  Cyayi      ,
Rwanda,Southern Province,Nyaruguru,Munini-Ruheru,Ntwali-Gite,Rwaninka,Identified,Requested,1013736,Suspended,120.0,-2.722467,29.511496,0.0,Project Assessment - 2018.9.28,a1if1000002Yv8eAAC,006f100000d7jIm,Rwaninka  Ntwali  Busanze  Gahotora   ,
Rwanda,Southern Province,Gisagara,Save,Munazi-Rwanza,Cyogo,Rejected,Technical,1013729,Suspension,0.0,-2.56425,29.78521,0.0,Project Assessment - 2018.9.28,a1if1000002Yv85AAC,006f100000d7jI3,Gitwa  Gakombe  Rweserezo  Ryamuguri  Akarambo,
Rwanda,Southern Province,Gisagara,Musha,Bukanyana-Gatovu,Nyirakimene,Rejected,Technical,1013732,Suspension,0.0,-2.52261,29.86105,0.0,Project Assessment - 2018.9.28,a1if1000002Yv8KAAS,006f100000d7jII,Gihinga  Bukinanyana  Rugarama  Gaseke - Nyagasambu  Nyabitare - Cyayi,
Rwanda,Southern Province,Gisagara,Kibirizi-Kansi,Ruturo-Nyange,Kigarama,Rejected,Technical,1013728,Suspension,0.0,-2.65762,29.819809999999997,0.0,Project Assessment - 2018.9.28,a1if1000002Yv80AAC,006f100000d7jHy,Kigarama  Karengera  Mpinga  Kabogoti  Kigarama (on the RHS ),
Rwanda,Southern Province,Gisagara,Save,Munazi-Rwanza,Ingirakamaro,Rejected,Technical,1013730,Suspension,0.0,-2.57166,29.78138,0.0,Project Assessment - 2018.9.28,a1if1000002Yv8AAAS,006f100000d7jI8,Kigwa  Gakombe  Nyarure  Ryamaguri   ,
Rwanda,Western Province,Nyamasheke,Kabengera-Nyakabuye,Higiro-Kamanu,Rujeberi,Rejected,Technical,1014131,Suspended,0.0,-2.54704093,29.03581174,0.0,Project Assessment - 2018.10.29,a1if1000002e6jaAAA,006f100000d1hGe,Rujeberi  Rukunguri-Mpinga  Muhora-Gitunda  Mukondo-Gasebeya-Nyakagoma  Gatare-Nyeshati-Gishagara,
Rwanda,Western Province,Nyamasheke,Bushenge,Gasheke,Kigenge-Kamayenga,Rejected,Technical,1014125,Suspended,0.0,-2.43036899,28.98131295,0.0,Project Assessment - 2018.10.29,a1if1000002e6jGAAQ,006f100000d1hF7,Kigenge_Nyamikingo  Gikombe-Gitwa  Kamucyamo-Gasheke-Rwashyamba  Kamayenga  Bugungu-Kanoga,
Rwanda,Western Province,Nyamasheke,Bushenge-Giheke,Gasheke-Gakomeye,Gitwa,Rejected,Technical,1014126,Suspended,0.0,-2.42782026,28.96789415,0.0,Project Assessment - 2018.10.29,a1if1000002e6jLAAQ,006f100000d1hFb,Gitwa  Rwamashyamba- Kamucyamu  Kigenge- Gikomero  Gacyamu- Buzi  Kagarama-Mubuga,
Rwanda,Western Province,Nyamasheke,Shangi,Mugera-Burimba,Karuhigi,Rejected,Technical,1014124,Suspended,0.0,-2.38012159,29.04157223,0.0,Project Assessment - 2018.10.29,a1if1000002e6j6AAA,006f100000d1hEY,Karuhigi  Karuhatana_ Karugero  Rwonga_Kavu  Nyakibingo_ Bweranyange  Rubaye_ Nyakagano,
Rwanda,Northern Province,Rulindo,Kisaro-Miyove,Sayo-Gakenke,Rusumo,Identified,Requested,1013737,Suspended,0.0,-1.6541299999999999,30.01517,0.0,Project Assessment - 2018.9.28,a1if1000002YvWnAAK,006f100000d7jMt,Rusumo  Nyamiyaga  Kibanda-Cyasure  Kirwa  Rugandu_Nyarurambe,
Rwanda,Northern Province,Rulindo,Base,Git-Nyamugari,Nyamugari,Identified,Identified in Needs Assessment,1007620,Suspended,14.0,-1.6613900000000001,29.88583,0.0,Project Assessment - 2018.7.26,a1if10000024k7MAAQ,006f100000a86HY,             ,
Rwanda,Western Province,Nyamasheke,Nyabitekeri,Muyange-Kigabiro,Cyamuti,Rejected,Technical,1014122,Suspended,0.0,-2.33294045,29.02570225,0.0,Project Assessment - 2018.10.29,a1if1000002e6j1AAA,006f100000d1hEE,Cyamuti  Rweru  Gahabwa  Buhokoro  Taba,
